styleUrl,name,address,longitude,latitude,altitude,total_boys,total_girls,total_enrolment,teachers_male,teachers_female,total_teachers,total_classrooms,totpara
#0,LUCKNOW,P.S. AMANI  GANJ-1 BANAUGA LUCKNOW,80.9252668,27.1399514,0,58,57,115,1,3,4,8,2
#0,LUCKNOW,P.S. AMANI GANJ-2 BANAUGA LUCKNOW,80.9252668,27.1399514,0,86,85,171,2,4,6,4,2
#0,LUCKNOW,PS ARAMBA ARAMBA LUCKNOW,80.9069472,27.1340249,0,69,100,169,3,3,6,7,2
#0,LUCKNOW,PS BHAGAUTIPUR BHAGAUTIPUR LUCKNOW,80.916626,27.1273644,0,27,24,51,0,3,3,6,1
#0,LUCKNOW,PS GOHNA KHURD GOHNA KHURD LUCKNOW,80.8835632,27.0140629,0,14,8,22,2,1,3,5,1
#0,LUCKNOW,PS SARAI DAMU SARAI DAMU LUCKNOW,81.2711546,26.1396996,0,38,36,74,1,2,3,4,1
#0,LUCKNOW,PS SHIVRI SHIVARI LUCKNOW,80.771321,26.807197,0,39,42,81,3,2,5,5,1
#0,LUCKNOW,P.S. ASTI-1 ASTI LUCKNOW,80.9713879,26.9922365,0,22,18,40,1,3,4,4,2
#0,LUCKNOW,P.S. ASTI-2 ASTI LUCKNOW,80.9713879,26.9922365,0,26,28,54,1,4,5,3,2
#0,LUCKNOW,PS BARAKHEMPUR BARAKHEMPUR LUCKNOW,80.9788187,27.0103407,0,62,44,106,0,5,5,3,2
#0,LUCKNOW,PS BHAKAMAU BHAKAMAU LUCKNOW,81.0016159,26.9749346,0,63,68,131,0,5,5,4,2
#0,LUCKNOW,PS DHINOHARI DAHANAURI LUCKNOW,80.9608569,27.0135619,0,30,44,74,0,3,3,3,1
#0,LUCKNOW,P.S. GORVAMAU-1 GORVAMAU LUCKNOW,80.946166,26.8466937,0,40,0,40,1,4,5,4,4
#0,LUCKNOW,P.S. GORVAMAU-2 GORVAMAU LUCKNOW,80.946166,26.8466937,0,0,34,34,1,3,4,3,1
#0,LUCKNOW,PS MANPUR LALA MANPUR BANA LUCKNOW,80.9304508,26.9970143,0,41,82,123,2,2,4,1,2
#0,LUCKNOW,PS PALKA PALKA LUCKNOW,81.0105872,26.9788213,0,42,41,83,0,3,3,4,0
#0,LUCKNOW,PS SADAMAU SADAMAU LUCKNOW,80.9967764,26.9808554,0,24,32,56,2,2,4,3,1
#0,LUCKNOW,PS SANSARPUR FATEHPUR KHAMRAI LUCKNOW,75.6193539,31.2672703,0,72,84,156,3,2,5,4,1
#0,LUCKNOW,PS SIWA SIWAN LUCKNOW,80.9953952,26.988062,0,38,36,74,1,3,4,4,2
#0,LUCKNOW,PS AJRAILPURWA ATESUA LUCKNOW,80.9345978,27.1183241,0,25,35,60,1,2,3,2,0
#0,LUCKNOW,PS ASNAHA ASNAHA LUCKNOW,80.9401268,27.1011859,0,81,79,160,3,4,7,6,2
#0,LUCKNOW,PS ATESUA ATESUA LUCKNOW,80.9397638,27.1012936,0,29,43,72,3,2,5,8,4
#0,LUCKNOW,PS BHIKHARIPUR BHIKHARIPUR LUCKNOW,82.8330954,25.2653978,0,32,35,67,1,3,4,4,2
#0,LUCKNOW,PS CHANDANAPUR CHANDANAPUR LUCKNOW,81.0021121,26.8999364,0,45,33,78,1,2,3,4,1
#0,LUCKNOW,PS DHILWASI DILVASI LUCKNOW,80.9276861,27.1484902,0,28,32,60,2,1,3,5,2
#0,LUCKNOW,PS HANUMANTPUR HANUMANTPUR LUCKNOW,80.9495012,27.1207469,0,43,50,93,2,2,4,5,1
#0,LUCKNOW,PS KHANPUR KHANPUR LUCKNOW,77.2321999,28.5077037,0,55,55,110,3,2,5,5,3
#0,LUCKNOW,PS PATTI PATTI LUCKNOW,80.9256124,26.8310723,0,42,49,91,2,3,5,3,2
#0,LUCKNOW,PS PIPRI PIPRI LUCKNOW,83.0227103,24.2012456,0,26,14,40,2,1,3,3,2
#0,LUCKNOW,PS BAGHA BAGAHA LUCKNOW,84.0722375,27.1221959,0,148,146,294,3,5,8,9,1
#0,LUCKNOW,PS BAHAR GAON BAHAR GAON LUCKNOW,80.8848199,27.1150928,0,62,58,120,3,3,6,7,0
#0,LUCKNOW,PS DUDHARA DUDHARA LUCKNOW,80.8446984,27.0906088,0,61,59,120,1,4,5,5,2
#0,LUCKNOW,PS EKDARIYA KALA IKDARIYA KALA LUCKNOW,80.88917,26.84222,0,41,38,79,1,3,4,4,1
#0,LUCKNOW,PS KAMLAPURI KAMLAPURI LUCKNOW,80.930509,26.849312,0,40,43,83,1,5,6,4,2
#0,LUCKNOW,PS KARAUNDI KARAUNDI LUCKNOW,82.9734759,25.2697862,0,61,72,133,1,4,5,5,0
#0,LUCKNOW,PS LASA IKDARIYA KHURD LUCKNOW,80.946166,26.8466937,0,35,43,78,3,3,6,5,2
#0,LUCKNOW,PS SURAJPUR GARHA SAHADAT NAGAR LUCKNOW,82.8679549,23.2136011,0,71,46,117,2,4,6,4,1
#0,LUCKNOW,P.S. YAMKHANWA-1 JAMKHANWA LUCKNOW,80.946166,26.8466937,0,28,29,57,3,1,4,5,0
#0,LUCKNOW,P.S. YAMKHANWA-2 JAMKHANWA LUCKNOW,80.946166,26.8466937,0,18,17,35,2,3,5,4,2
#0,LUCKNOW,PS ACHRAMAU ACHRAMAU LUCKNOW,80.2181886,27.1749277,0,36,44,80,2,2,4,4,2
#0,LUCKNOW,PS AKOHARI MAMPUR BANA LUCKNOW,80.9021074,26.3868115,0,28,24,52,0,4,4,5,1
#0,LUCKNOW,PS BHAISAMAU BHAISAMAU LUCKNOW,80.9183772,27.0123728,0,82,106,188,0,6,6,5,1
#0,LUCKNOW,PS BHIKHAPURWA BHIKHA PURWA LUCKNOW,80.8613028,26.983781,0,22,20,42,1,3,4,3,1
#0,LUCKNOW,PS DIGOIE DIGOIE LUCKNOW,80.946166,26.8466937,0,49,65,114,1,4,5,5,1
#0,LUCKNOW,PS DURJANPUR DUTJANPUR LUCKNOW,80.9580932,26.9900433,0,10,21,31,2,2,4,4,2
#0,LUCKNOW,PS MAMPUR BANA MAMPUR BANA LUCKNOW,80.9228247,26.9953996,0,12,38,50,1,3,4,4,1
#0,LUCKNOW,PS MISRIPUR MISRIPUR LUCKNOW,80.9788187,26.9461443,0,47,60,107,0,5,5,4,2
#0,LUCKNOW,PS NAGVAMAU KALA NAGAMAU KALA LUCKNOW,79.9164717,27.4209455,0,84,79,163,4,2,6,2,2
#0,LUCKNOW,PS NAYA PURWA ACHRAMAU LUCKNOW,80.9323516,26.8988314,0,18,33,51,2,2,4,8,2
#0,LUCKNOW,PS RAJPUR RAJPUR LUCKNOW,80.946166,26.8466937,0,31,24,55,1,2,3,2,1
#0,LUCKNOW,PS RAMPUR BAHERA RAMPUR BAHERA LUCKNOW,80.9069472,27.0232081,0,30,26,56,0,3,3,4,1
#0,LUCKNOW,P.S. SANWA-2 SONAVA LUCKNOW,80.9456553,27.0198758,0,44,57,101,0,4,4,4,1
#0,LUCKNOW,PS SARAIYA SARAIYA LUCKNOW,80.9110954,26.9636695,0,112,106,218,1,8,9,6,1
#0,LUCKNOW,PS SONWA 1 SONAVA LUCKNOW,80.9456553,27.0198758,0,48,41,89,2,4,6,4,2
#0,LUCKNOW,PS TAKIYA MAMPUR BANA LUCKNOW,80.9304508,26.9970143,0,23,23,46,0,4,4,2,1
#0,LUCKNOW,PS BASENA JALALPUR LUCKNOW,82.7374115,26.3093328,0,40,40,80,0,2,2,2,0
#0,LUCKNOW,P.S. ARJUNPUR-1 ARJUNPUR LUCKNOW,80.946166,26.8466937,0,67,83,150,1,3,4,4,2
#0,LUCKNOW,P.S. ARJUNPUR-2 ARJUNPUR LUCKNOW,80.8995145,27.0626485,0,49,68,117,1,3,4,8,1
#0,LUCKNOW,PS BIBIPUR BIBIPUR LUCKNOW,76.2812362,29.243081,0,45,30,75,2,3,5,5,2
#0,LUCKNOW,PS CHAK PIRTHAVIPUR CHAK PIRTHVIPUR LUCKNOW,78.5334307,28.4733952,0,27,27,54,0,2,2,4,0
#0,LUCKNOW,PS DAULATPUR DAULATPUR LUCKNOW,80.946166,26.8466937,0,31,28,59,0,3,3,4,1
#0,LUCKNOW,P.S. DEVRI RUKHARA-1 DEVRI ROOKHARA LUCKNOW,80.9554866,27.8581891,0,33,23,56,0,4,4,2,2
#0,LUCKNOW,P.S. DEVRI RUKHARA-2 DEVRI ROOKHARA LUCKNOW,80.9554866,27.8581891,0,37,42,79,2,3,5,3,1
#0,LUCKNOW,PS JALALPUR JALALPUR LUCKNOW,80.8841264,26.8328405,0,55,38,93,1,5,6,5,1
#0,LUCKNOW,PS KAMALPUR SIRSA KAMALPUR SIRSA LUCKNOW,80.8835632,27.0140629,0,40,49,89,0,4,4,3,1
#0,LUCKNOW,PS SUKHRI BIBIPUR LUCKNOW,80.9304508,27.0553561,0,31,45,76,0,2,2,2,0
#0,LUCKNOW,PSBINDHAURA BINDHAORA LUCKNOW,80.946166,26.8466937,0,38,34,72,3,1,4,4,2
#0,LUCKNOW,PSKHESRAWAN KHESRAVAN LUCKNOW,80.9180086,27.0589259,0,54,44,98,2,3,5,5,2
#0,LUCKNOW,PS BALWADI INDAURA BAGH RAJAPUR INDAURA LUCKNOW,80.901416,27.0053471,0,64,56,120,0,6,6,4,1
#0,LUCKNOW,P.S. BHAULI-1 BHAULI LUCKNOW,80.8939827,26.9798856,0,33,40,73,0,3,3,5,1
#0,LUCKNOW,P.S. BHAULI-2 BHAULI LUCKNOW,80.8939827,26.9798856,0,17,13,30,0,5,5,5,1
#0,LUCKNOW,PS BHAWANIPUR BHAVANIPUR LUCKNOW,88.3459362,22.5332356,0,7,7,14,1,4,5,3,2
#0,LUCKNOW,PS BIKAMAU KHURD BIKAMAU KHURD LUCKNOW,80.8835632,27.0140629,0,39,37,76,1,3,4,3,2
#0,LUCKNOW,PS HARDHAURPUR HARDAURPUR LUCKNOW,80.8792871,27.0039116,0,33,40,73,1,2,3,3,1
#0,LUCKNOW,PS MADARIPUR MADARIPUR LUCKNOW,90.1939932,23.1648826,0,80,72,152,2,3,5,3,0
#0,LUCKNOW,PS RAMPUR DAVARAIE RAMPUR DEVRAIE LUCKNOW,80.9134443,26.9977388,0,39,44,83,0,3,3,4,1
#0,LUCKNOW,PS SADHAMAU SADHAMAU LUCKNOW,80.9967764,26.9808554,0,42,10,52,2,2,4,3,2
#0,LUCKNOW,PS VISHRAMPUR VISHRAMPUR LUCKNOW,82.9675226,23.1853347,0,20,22,42,2,4,6,2,2
#0,LUCKNOW,PSINDAURABAG 1 INDORABAG LUCKNOW,80.946166,26.8466937,0,25,23,48,0,3,3,3,1
#0,LUCKNOW,P.S.INDORABAG-2 INDORABAG LUCKNOW,80.946166,26.8466937,0,72,43,115,1,3,4,4,1
#0,LUCKNOW,PS ADHAR KHERA AHDAR KHERA LUCKNOW,80.983625,26.9514256,0,23,42,65,1,4,5,5,2
#0,LUCKNOW,PS AJNAHAR AJNAHAR KALAN LUCKNOW,80.946166,26.8466937,0,16,18,34,0,4,4,3,2
#0,LUCKNOW,PS BARKHURDARPUR BARKHURDARPUR LUCKNOW,80.9869875,26.9414638,0,66,71,137,1,7,8,4,2
#0,LUCKNOW,PS GOHNA KALA GOHNA KALA LUCKNOW,83.3816099,26.034761,0,46,53,99,0,5,5,5,2
#0,LUCKNOW,PS GURAMBA GURAMBA LUCKNOW,80.982601,26.930381,0,79,47,126,1,3,4,4,1
#0,LUCKNOW,PS MISHRPUR MIRSHPUR LUCKNOW,80.497996,26.7730078,0,61,71,132,0,5,5,4,1
#0,LUCKNOW,PS RASOOLPUR KAYASTH RASOOLPUR KAYASTH LUCKNOW,80.9575663,26.945823,0,72,70,142,1,5,6,5,1
#0,LUCKNOW,PS BAHADURPUR SULTANPUR LUCKNOW,82.053269,26.2561351,0,76,60,136,1,4,5,5,1
#0,LUCKNOW,PS BARGADI KALA BARGADI KALA LUCKNOW,80.8889692,27.043918,0,33,34,67,1,3,4,4,2
#0,LUCKNOW,PS BHARATPUR BARGADI BARGADI KALA LUCKNOW,77.5029996,27.2151863,0,34,33,67,2,2,4,5,1
#0,LUCKNOW,PS BHIKHAMPUR BHIKHAMPUR LUCKNOW,80.8723705,27.0515885,0,25,25,50,0,3,3,4,2
#0,LUCKNOW,PS KATHWARA KATHWARA LUCKNOW,80.8414182,27.0244294,0,104,101,205,1,6,7,5,2
#0,LUCKNOW,PS KHERWA KATHWARA LUCKNOW,73.4607431,25.6754134,0,47,58,105,1,4,5,4,1
#0,LUCKNOW,PS MAJHORIA MAJHORIA LUCKNOW,80.946166,26.8466937,0,32,31,63,2,5,7,2,2
#0,LUCKNOW,PS MALLAHAN KHEDA KATHWARA LUCKNOW,72.6846658,22.750651,0,62,51,113,0,5,5,4,2
#0,LUCKNOW,PS PARWATPUR PARVATPUR LUCKNOW,80.886203,26.9941504,0,18,21,39,0,2,2,4,0
#0,LUCKNOW,PS RAJAPUR RAJAPUR LUCKNOW,80.946166,26.8466937,0,34,37,71,1,4,5,2,2
#0,LUCKNOW,PS RAMGARHA RAMGARHA LUCKNOW,80.7727061,26.9488198,0,20,6,26,2,1,3,3,1
#0,LUCKNOW,PS SHAHPUR SHAHPUR LUCKNOW,81.0403383,26.8773684,0,25,35,60,2,0,2,3,0
#0,LUCKNOW,PS SHIVPURI SHIVPURI LUCKNOW,77.665066,25.4357869,0,123,113,236,3,5,8,6,1
#0,LUCKNOW,PS SINGHAMAU SINGHAMAU LUCKNOW,80.886203,27.052488,0,14,18,32,0,4,4,3,2
#0,LUCKNOW,P.S. SINGHAMAU-2 SINGHAMAU LUCKNOW,80.886203,27.052488,0,17,13,30,1,2,3,3,1
#0,LUCKNOW,PS AKDA AKDA LUCKNOW,80.946166,26.8466937,0,47,57,104,3,1,4,2,1
#0,LUCKNOW,PS ALDAMPUR ALDAMPUR LUCKNOW,80.9397638,27.1012936,0,53,38,91,1,2,3,5,0
#0,LUCKNOW,PS BAJPUR GAGAURA BAJUPUR GANGAURA LUCKNOW,79.1463868,29.1585345,0,68,66,134,2,1,3,2,1
#0,LUCKNOW,PS BHAGTA KHEDA UNAI LUCKNOW,80.946166,26.8466937,0,35,28,63,0,3,3,2,0
#0,LUCKNOW,PS CHATURPUR CHATURPUR LUCKNOW,80.946166,26.8466937,0,32,29,61,1,1,2,2,0
#0,LUCKNOW,PS DARIAPUR DARIAPUR LUCKNOW,72.5936793,23.0340575,0,58,60,118,0,5,5,5,2
#0,LUCKNOW,PS GULALPUR GULALAPUR LUCKNOW,80.9567113,27.1080897,0,58,56,114,1,3,4,4,1
#0,LUCKNOW,PS HEMI HEMI LUCKNOW,80.9580932,27.0629743,0,17,23,40,2,2,4,3,1
#0,LUCKNOW,PS JALIMPUR PARSAHIA LUCKNOW,80.9567114,27.0905924,0,14,19,33,1,3,4,3,2
#0,LUCKNOW,P.S. KUMHRANWA-1 KUMHARAVA LUCKNOW,80.9747461,27.0924892,0,32,37,69,1,3,4,5,1
#0,LUCKNOW,P.S. KUMHRANWA-2 KUMHARAVA LUCKNOW,80.9747461,27.0924892,0,9,5,14,1,2,3,4,1
#0,LUCKNOW,PS PARSAHIYA PARSAHIA LUCKNOW,80.9567113,27.0905924,0,44,42,86,0,3,3,5,1
#0,LUCKNOW,PS RAMPURWA RAMPURWA LUCKNOW,81.4333923,27.5491141,0,28,23,51,1,2,3,2,1
#0,LUCKNOW,PS SARANWA SARANVA LUCKNOW,80.91189,26.8662907,0,29,33,62,1,3,4,3,1
#0,LUCKNOW,PS UNAIE UNAI LUCKNOW,80.9691475,27.0578529,0,67,54,121,1,3,4,5,2
#0,LUCKNOW,PS VISHAMBHAR KHEDA VISHAMBHAR KHEDA LUCKNOW,72.6846658,22.750651,0,26,21,47,2,1,3,3,1
#0,LUCKNOW,PS SARAIYA NAVEEN MAHIGAVA LUCKNOW,80.9110954,26.9636695,0,39,28,67,1,1,2,2,0
#0,LUCKNOW,PS ARIGAWAN ARIGAWAN LUCKNOW,80.946166,26.8466937,0,31,45,76,1,2,3,3,1
#0,LUCKNOW,PS BHARIGAHNA BHARIGAHNA LUCKNOW,80.946166,26.8466937,0,45,42,87,1,2,3,5,1
#0,LUCKNOW,PS DARANWA DARAUNA LUCKNOW,81.0098967,27.0859934,0,52,50,102,0,4,4,3,2
#0,LUCKNOW,PS INDARA INDARA LUCKNOW,83.6215402,25.9866851,0,34,37,71,1,3,4,3,3
#0,LUCKNOW,PS KARIM NAGAR KARIM NAGAR LUCKNOW,79.1288412,18.4385553,0,20,42,62,0,4,4,3,1
#0,LUCKNOW,PS KHAJURI KHAJURI LUCKNOW,80.9884887,27.0853479,0,22,23,45,0,4,4,4,1
#0,LUCKNOW,P.S. MAHIGAVA-1 MAHIGAVA LUCKNOW,81.0001048,27.1101712,0,26,0,26,4,1,5,5,2
#0,LUCKNOW,P.S. MAHIGAVA-2 MAHIGAVA LUCKNOW,81.0001048,27.1101712,0,0,69,69,0,4,4,3,1
#0,LUCKNOW,PS MOHDPUR GARHI MOHAMMADPUR GARHI LUCKNOW,77.689401,29.9523125,0,61,45,106,2,2,4,3,1
#0,LUCKNOW,PS NAROSA NAROSA LUCKNOW,81.0230149,27.0890217,0,71,81,152,3,3,6,4,4
#0,LUCKNOW,PS PALIYA PALIYA LUCKNOW,80.8154162,26.8573628,0,49,67,116,0,3,3,5,1
#0,LUCKNOW,PS RAIPUR BABU RAIPUR BABU LUCKNOW,80.9487624,26.8484485,0,36,52,88,2,1,3,2,1
#0,LUCKNOW,PS REWAMAU REWAMAU LUCKNOW,81.0114003,27.1083158,0,31,31,62,3,1,4,3,1
#0,LUCKNOW,PS TIKRI TIKARI LUCKNOW,77.3518265,29.2297489,0,46,41,87,0,3,3,5,0
#0,LUCKNOW,PSBHAWANIPUR NAWIN BHAVANIPUR LUCKNOW,80.8910438,26.998111,0,29,34,63,2,2,4,3,2
#0,LUCKNOW,PS GODHANA GODHANA LUCKNOW,81.0009199,27.1342659,0,46,32,78,3,3,6,5,2
#0,LUCKNOW,PS HIMMATPUR HIMMATPUR LUCKNOW,77.965299,28.7701357,0,38,25,63,1,3,4,4,3
#0,LUCKNOW,PS KUNAURA KUNAURA LUCKNOW,80.9637051,27.1398791,0,28,36,64,0,2,2,3,0
#0,LUCKNOW,PS LALPUR LALPUR LUCKNOW,85.3350511,23.3714748,0,41,30,71,0,4,4,3,1
#0,LUCKNOW,PS MUSPIPRI MUSPIPRI LUCKNOW,80.946166,26.8466937,0,40,49,89,2,3,5,4,2
#0,LUCKNOW,PS NARAYANPUR NARAYANPUR LUCKNOW,80.9692269,26.8992663,0,37,40,77,3,2,5,4,1
#0,LUCKNOW,PS RANIPURWA RANIPURWA LUCKNOW,80.8894926,26.7785352,0,41,34,75,1,2,3,4,1
#0,LUCKNOW,PS SUBANSHIPUR SUBANSHIPUR LUCKNOW,81.0188725,27.1106306,0,44,30,74,0,3,3,5,1
#0,LUCKNOW,PS UMARIYA KHURD UMARIYA LUCKNOW,80.9677658,27.1146352,0,34,38,72,2,2,4,5,1
#0,LUCKNOW,PS VISHRAMPURWA MUSPIPRI LUCKNOW,80.946166,26.8466937,0,41,23,64,0,2,2,3,0
#0,LUCKNOW,PSSHAHPUR NAJOOL SHAHPUR NAJOL LUCKNOW,80.9511835,27.1310601,0,28,24,52,2,2,4,2,3
#0,LUCKNOW,PS PUHUPPUR PUHUPPUR LUCKNOW,81.0119681,27.1174787,0,37,38,75,2,2,4,3,1
#0,LUCKNOW,PS  BARGADI BARGADI MAGATH LUCKNOW,80.923091,26.9832978,0,35,47,82,1,5,6,4,2
#0,LUCKNOW,PS AHLADPUR AHLADPUR LUCKNOW,79.4971033,28.4104473,0,21,24,45,0,3,3,2,1
#0,LUCKNOW,PS BKT BARGADI MAGATH LUCKNOW,80.9209618,26.9864489,0,57,73,130,0,5,5,7,1
#0,LUCKNOW,PS CHAKGANJA GIRI CHAKGANJA GIRI LUCKNOW,80.9186999,26.9561367,0,24,17,41,1,2,3,3,1
#0,LUCKNOW,PS CHANDRA KODAR CHANDRA KODA LUCKNOW,80.946166,26.8466937,0,36,25,61,1,3,4,4,2
#0,LUCKNOW,PS DINKARPUR JHALUVA DINKARPUR JHALAVA LUCKNOW,77.6063541,29.3628368,0,34,40,74,0,4,4,5,1
#0,LUCKNOW,PS JWARGAON JWARGAON LUCKNOW,80.946166,26.8466937,0,23,18,41,0,4,4,2,2
#0,LUCKNOW,PS KAMLABAD BARHAULI KAMLABAD BARHAULI LUCKNOW,80.9260302,26.9533362,0,55,70,125,1,5,6,5,2
#0,LUCKNOW,PS MUBARAKPUR MUBARAKPUR LUCKNOW,80.904766,26.937585,0,47,31,78,0,3,3,4,1
#0,LUCKNOW,PS MUSLIM NAGAR KAMLABAD BARHAULI LUCKNOW,80.9000331,26.8053367,0,71,58,129,1,5,6,2,2
#0,LUCKNOW,PS NABIKOT NANDANA NABIKOT NANDANA LUCKNOW,80.9241668,26.9607693,0,5,10,15,0,4,4,5,2
#0,LUCKNOW,PS ROODHI ROODHI LUCKNOW,80.946166,26.8466937,0,39,44,83,0,3,3,5,0
#0,LUCKNOW,PS SARAKPUR SARAIYA SARAIYA LUCKNOW,80.9193912,26.9612877,0,57,48,105,1,4,5,4,1
#0,LUCKNOW,PS TARAHIA TARHIA LUCKNOW,80.9138608,26.9492586,0,36,40,76,1,4,5,6,2
#0,LUCKNOW,PS UMARBHARI UMARBHARI LUCKNOW,80.9055645,26.9516403,0,20,22,42,0,3,3,2,1
#0,LUCKNOW,PSKOTWA KOTWA LUCKNOW,80.9316604,26.9583383,0,47,47,94,0,4,4,5,1
#0,LUCKNOW,PS ATRAURA ATARAURA LUCKNOW,80.9636205,27.0487463,0,60,60,120,2,3,5,8,2
#0,LUCKNOW,PS BHARSAR BHARSAR LUCKNOW,80.9525655,27.0567843,0,47,43,90,2,3,5,5,1
#0,LUCKNOW,PS BHESI BHESI LUCKNOW,80.9608569,27.022314,0,26,27,53,2,1,3,2,1
#0,LUCKNOW,PS DHARAURA ATARAURA LUCKNOW,82.8788676,25.6534715,0,62,64,126,1,3,4,4,1
#0,LUCKNOW,PS KHANTARI KHANTARI LUCKNOW,80.9829171,27.0275616,0,4,2,6,3,2,5,4,1
#0,LUCKNOW,PS MALHIPUR MALHIPUR LUCKNOW,80.946166,26.8466937,0,26,34,60,0,3,3,5,1
#0,LUCKNOW,PS MAWAI KALA MAVAIKALA LUCKNOW,80.9825313,27.0280959,0,30,30,60,1,2,3,3,0
#0,LUCKNOW,PS MOHDPUR SARAIYA MOHDPUR SARAIYA LUCKNOW,80.9110954,26.9636695,0,16,22,38,2,2,4,2,3
#0,LUCKNOW,P.S. PAHARPUR-1 PAHARPUR LUCKNOW,80.9456553,27.0373786,0,64,56,120,1,4,5,4,2
#0,LUCKNOW,P.S. PAHARPUR-2 PAHARPUR LUCKNOW,80.9456553,27.0373786,0,37,51,88,0,3,3,4,1
#0,LUCKNOW,PS PARSAU PARSAU LUCKNOW,80.9567113,27.0322573,0,38,46,84,1,3,4,4,2
#0,LUCKNOW,PS RAZASALEMPUR RAJAPUR SALEMPUR LUCKNOW,80.9732924,27.0391591,0,47,31,78,0,3,3,6,1
#0,LUCKNOW,PS SAHPURWA PAHARPUR LUCKNOW,83.2231621,25.0795486,0,12,17,29,3,2,5,4,1
#0,LUCKNOW,PS SARSAWAN SARSAVA LUCKNOW,80.9953952,26.8070719,0,67,67,134,0,5,5,3,1
#0,LUCKNOW,PS TARANPUR TARANPUR LUCKNOW,80.9692269,26.8992663,0,26,21,47,2,1,3,3,1
#0,LUCKNOW,PSSINGHPUR SINGHPUR LUCKNOW,80.946166,26.8466937,0,9,12,21,1,4,5,4,2
#0,LUCKNOW,PS BASHA BASAHA LUCKNOW,80.9957405,26.9527008,0,54,64,118,1,3,4,4,1
#0,LUCKNOW,P.S. BASHA-2 BASAHA LUCKNOW,80.946166,26.8466937,0,40,32,72,0,3,3,3,1
#0,LUCKNOW,PS BEHTA BEHTA LUCKNOW,81.014903,26.980266,0,89,76,165,0,6,6,5,1
#0,LUCKNOW,PS BHITAHRI BHITAHRI LUCKNOW,83.2893965,25.5668642,0,56,58,114,2,3,5,3,2
#0,LUCKNOW,PS BHULBHULPUR BHULBHULPUR LUCKNOW,81.0284584,26.9456706,0,51,52,103,1,3,4,3,0
#0,LUCKNOW,PS DASAULI DASHAULI LUCKNOW,80.9992311,26.958454,0,69,53,122,0,5,5,4,1
#0,LUCKNOW,PS GOILA GOILA LUCKNOW,81.0402337,26.9201777,0,57,68,125,0,4,4,4,0
#0,LUCKNOW,PS KAKERHARI KAKREHI LUCKNOW,80.946166,26.8466937,0,50,37,87,0,3,3,3,1
#0,LUCKNOW,PS KAPASI KAPASI LUCKNOW,81.0299183,26.9537902,0,61,46,107,0,4,4,4,0
#0,LUCKNOW,PS MOHAMMADPUR MAJARA MOHAMMADPUR MAJARA LUCKNOW,81.004278,26.897179,0,55,63,118,2,3,5,6,1
#0,LUCKNOW,PS MURLI PURWA GOILA LUCKNOW,80.771321,26.4566318,0,37,51,88,1,4,5,5,1
#0,LUCKNOW,PS PAIKARAMAU PAIKARAMAU LUCKNOW,81.0119681,26.971614,0,120,110,230,1,7,8,7,1
#0,LUCKNOW,PS PARA PARA LUCKNOW,80.8774113,26.8342191,0,48,54,102,2,3,5,4,2
#0,LUCKNOW,PS RAJAULI RAJAULI LUCKNOW,81.0395821,26.9617028,0,120,111,231,3,4,7,5,2
#0,LUCKNOW,PS RASOOLPUR SADAT RASOOLPUR SADAT LUCKNOW,81.0252994,26.9286738,0,53,33,86,1,4,5,4,1
#0,LUCKNOW,PSKOILIPURWA KOILI PURWA LUCKNOW,80.771321,26.4566318,0,45,41,86,0,5,5,5,2
#0,LUCKNOW,P.S. BELWA-1 BELAVA LUCKNOW,80.7685508,26.8274486,0,50,44,94,1,2,3,5,1
#0,LUCKNOW,P.S. BELWA-2 BELAVA LUCKNOW,80.8917353,27.0907585,0,19,19,38,1,4,5,2,1
#0,LUCKNOW,P.S. ETAUNJA-1 ETAUNJA LUCKNOW,80.8958843,27.0808218,0,117,97,214,1,6,7,5,2
#0,LUCKNOW,P.S. ETAUNJA-2 ETAUNJA LUCKNOW,80.8958843,27.0808218,0,16,5,21,0,5,5,6,2
#0,LUCKNOW,PS KHERIYA KHERIYA LUCKNOW,80.946166,26.8466937,0,44,37,81,1,3,4,2,1
#0,LUCKNOW,PS LODH PURWA LODH PURWA LUCKNOW,80.8897966,26.8765071,0,14,18,32,0,2,2,4,0
#0,LUCKNOW,PS LODHAULI LODHAULI LUCKNOW,80.8903523,27.10379,0,38,30,68,0,4,4,5,2
#0,LUCKNOW,PS MAHONA {UM} MAHONA LUCKNOW,80.9163057,27.1120417,0,77,66,143,1,5,6,2,2
#0,LUCKNOW,P.S. MAHONA-1 MAHONA LUCKNOW,80.9163057,27.1120417,0,75,65,140,1,7,8,5,1
#0,LUCKNOW,P.S. MAHONA-2 MAHONA LUCKNOW,80.9163057,27.1120417,0,78,83,161,1,6,7,5,3
#0,LUCKNOW,PS MALOOKPUR MALOOKPUR LUCKNOW,81.0617165,26.8028143,0,61,61,122,0,3,3,4,1
#0,LUCKNOW,PS MARPA MARPA LUCKNOW,80.946166,26.8466937,0,72,73,145,2,5,7,3,1
#0,LUCKNOW,PS NAGAR CHAUGANVAN NAGAR CHAUGANAVAN LUCKNOW,80.9944236,26.854442,0,28,36,64,0,5,5,5,1
#0,LUCKNOW,PS PALPUR PALPUR LUCKNOW,80.8945014,27.0617763,0,20,32,52,0,4,4,4,1
#0,LUCKNOW,P.S. RAIPUR RAZA-1 RAIPUR RAJA LUCKNOW,81.6296413,21.2513844,0,49,41,90,2,3,5,5,1
#0,LUCKNOW,P.S. RAIPUR RAZA-2 RAIPUR RAJA LUCKNOW,81.6296413,21.2513844,0,32,46,78,2,4,6,5,2
#0,LUCKNOW,PS VIKRAMPUR VIKRAMPUR LUCKNOW,80.946166,26.8466937,0,26,23,49,4,2,6,3,1
#0,LUCKNOW,PS AHMADPUR KHERA AHMADPUR KHERA LUCKNOW,80.9138608,27.0717813,0,29,33,62,1,3,4,2,2
#0,LUCKNOW,PS AKBARPUR AKBARPUR LUCKNOW,82.5331119,26.4269869,0,41,54,95,3,2,5,7,2
#0,LUCKNOW,PS CHANDPUR KHANIPUR CHANDPUR KHANIPUR LUCKNOW,80.8973007,27.063678,0,36,40,76,0,5,5,3,2
#0,LUCKNOW,PS DEREVA DEREVA LUCKNOW,80.946166,26.8466937,0,95,64,159,1,2,3,3,1
#0,LUCKNOW,PS KALYANPUR CHANDPUR KHANIPUR LUCKNOW,80.9664761,26.9019127,0,35,32,67,0,4,4,3,2
#0,LUCKNOW,PS KISHUNPUR KISHUNPUR LUCKNOW,80.9401268,27.0895212,0,63,97,160,1,2,3,4,1
#0,LUCKNOW,PS PRITHVI NAGAR PIRTHI NAGAR LUCKNOW,80.9235387,26.9834389,0,10,10,20,1,3,4,3,1
#0,LUCKNOW,P.S. USARNA-1 USARANA LUCKNOW,80.9345978,27.0774984,0,89,80,169,2,4,6,4,3
#0,LUCKNOW,P.S. USARNA-2 USARANA LUCKNOW,80.9345978,27.0774984,0,58,62,120,1,2,3,6,2
#0,LUCKNOW,PS ALI NAGAR ALI NAGER LUCKNOW,80.8740541,26.7779081,0,31,25,56,1,1,2,4,1
#0,LUCKNOW,PS ALLUNAGAR DIGURIYA ALLUNAGER DIGURIA LUCKNOW,80.901416,26.9236497,0,76,55,131,1,4,5,4,1
#0,LUCKNOW,PS GHAILA GHAILA LUCKNOW,80.8964161,26.9161487,0,65,78,143,3,2,5,4,2
#0,LUCKNOW,PS KAKAULI KAKAULI LUCKNOW,80.905,26.86605,0,149,155,304,2,4,6,2,2
#0,LUCKNOW,PS NARHARPUR NARHARPUR LUCKNOW,81.0089001,26.8752127,0,30,30,60,0,3,3,4,0
#0,LUCKNOW,PS PALHARI PALHARI LUCKNOW,81.0403383,26.8773684,0,12,19,31,1,2,3,4,1
#0,LUCKNOW,PS ROSHNABAD ROSHNABAD LUCKNOW,79.467576,27.4862647,0,45,57,102,0,4,4,5,2
#0,LUCKNOW,PS SAIDAPUR SAIDAPUR LUCKNOW,80.8834367,26.9472896,0,89,75,164,0,3,3,4,1
#0,LUCKNOW,P.S. SAIDAPUR-II SAIDAPUR LUCKNOW,81.0089001,26.8752127,0,17,17,34,0,4,4,2,1
#0,LUCKNOW,PS BAISANBAGH BAISANBAGH LUCKNOW,80.946166,26.8466937,0,18,19,37,1,2,3,3,2
#0,LUCKNOW,PS BARUMAU BORUMAU LUCKNOW,81.0089001,26.8752127,0,74,77,151,2,2,4,4,2
#0,LUCKNOW,PS DHATINGARA DHATINGARA LUCKNOW,80.946166,26.8466937,0,45,75,120,1,3,4,4,2
#0,LUCKNOW,PS DUGGAUR DUGGOR LUCKNOW,81.0953494,26.8895057,0,65,85,150,0,3,3,3,1
#0,LUCKNOW,PS HIRANKHURI HIRANKHURI LUCKNOW,81.0399603,26.8770713,0,43,33,76,1,3,4,3,3
#0,LUCKNOW,PS KHANIPUR KHANIPUR LUCKNOW,83.2907339,26.7237352,0,19,21,40,0,3,3,2,1
#0,LUCKNOW,PS LODHMAU LODHMAU LUCKNOW,80.8368134,26.9644715,0,15,15,30,0,1,1,5,0
#0,LUCKNOW,PS MUNSHI KHEDA MUNSHI KHEDA LUCKNOW,80.8903049,26.7921277,0,31,35,66,1,2,3,3,1
#0,LUCKNOW,PS PASCHIM GAON DHATINGARA LUCKNOW,80.921465,26.4567786,0,32,56,88,1,2,3,4,0
#0,LUCKNOW,PS RAITHA RAITHA LUCKNOW,80.8460822,26.990083,0,108,111,219,0,3,3,6,1
#0,LUCKNOW,PS SAMADHANPUR DHATINGARA LUCKNOW,80.946166,26.8466937,0,11,13,24,1,3,4,2,2
#0,LUCKNOW,PS VEERUMPUR VEERUMPUR LUCKNOW,81.0089001,26.8752127,0,4,11,15,0,2,2,3,1
#0,LUCKNOW,PS AHIRAN PURWA AHIRAN PURWA LUCKNOW,82.9326771,25.3527189,0,71,64,135,0,6,6,5,2
#0,LUCKNOW,PS BHITAULI KHURD BHITAULIKHURD LUCKNOW,80.929832,26.941651,0,79,84,163,0,6,6,5,2
#0,LUCKNOW,PS KHARAGPUR JAGEER KHARGAPUR JAGEER LUCKNOW,87.2319753,22.34601,0,82,86,168,1,8,9,3,2
#0,LUCKNOW,PS MIRZAPUR MIRZAPUR LUCKNOW,80.9470374,26.9513981,0,49,52,101,0,3,3,4,1
#0,LUCKNOW,PS MUTAQIPUR MUTAQIPUR LUCKNOW,80.946166,26.8466937,0,38,46,84,0,4,4,3,2
#0,LUCKNOW,PS TIWARIPUR TIWARIPUR LUCKNOW,80.9256124,26.8310723,0,29,24,53,1,3,4,5,2
#0,LUCKNOW,PS ANAURA KALA ANAURAKALA LUCKNOW,81.0916181,26.8970375,0,40,55,95,0,5,5,4,2
#0,LUCKNOW,PS DHAWA DHAWA LUCKNOW,81.052553,26.9067581,0,23,77,100,0,3,3,5,0
#0,LUCKNOW,PS GANESHPUR GANESHPUR RAHMANPUR LUCKNOW,81.0530602,26.8919293,0,102,98,200,1,5,6,5,2
#0,LUCKNOW,PS NARENDI NARENDI LUCKNOW,81.0878831,26.8903297,0,42,23,65,1,3,4,3,2
#0,LUCKNOW,PS NAUBASTA KALA NAUBASTAKALA LUCKNOW,81.0368211,26.8943893,0,37,42,79,1,5,6,4,2
#0,LUCKNOW,P.S. PAPNAMAU-1 PAPNAMAU LUCKNOW,81.0356724,26.8528143,0,44,28,72,0,4,4,5,2
#0,LUCKNOW,P.S. PAPNAMAU-2 PAPNAMAU LUCKNOW,81.0356724,26.8528143,0,39,43,82,0,6,6,4,2
#0,LUCKNOW,PS REHMANPUR REHMANPUR LUCKNOW,81.0492446,26.8937195,0,32,53,85,0,4,4,4,2
#0,LUCKNOW,PS TARA KA PURWA TARA KA PURWA LUCKNOW,80.771321,26.4566318,0,92,99,191,1,2,3,2,1
#0,LUCKNOW,PS Tiwariganj UTTARDHAUNA LUCKNOW,81.063096,26.8913625,0,36,51,87,1,1,2,2,0
#0,LUCKNOW,P.S. UTTARDHAUNA-1 UTTARDHAUNA LUCKNOW,81.063096,26.8913625,0,106,103,209,0,5,5,4,1
#0,LUCKNOW,P.S. UTTARDHAUNA-2 UTTARDHAUNA LUCKNOW,81.0596445,26.8872312,0,29,22,51,1,3,4,4,2
#0,LUCKNOW,P S Mehaura MEHAURA LUCKNOW,81.4526179,26.8764063,0,47,42,89,0,4,4,2,1
#0,LUCKNOW,PS BABURIHA JUGGAUR LUCKNOW,81.0538707,26.8438665,0,24,27,51,0,2,2,4,0
#0,LUCKNOW,PS CHHEDA PURWA JUGGAUR LUCKNOW,80.8613028,26.983781,0,25,64,89,3,0,3,3,1
#0,LUCKNOW,PS DAYARAM PURWA JUGGAUR LUCKNOW,81.0761485,26.8847587,0,35,56,91,1,5,6,4,2
#0,LUCKNOW,PS JUGGAUR 1 JUGGAUR LUCKNOW,81.0809848,26.8738338,0,88,93,181,2,6,8,6,0
#0,LUCKNOW,P.S. JUGGAUR-2 JUGGAUR LUCKNOW,81.0953494,26.8895057,0,36,34,70,2,5,7,3,2
#0,LUCKNOW,PS LOKHRIHA MEHAURA LUCKNOW,80.8737539,26.6532221,0,80,83,163,1,3,4,2,2
#0,LUCKNOW,PS NANDPUR NANDPUR LUCKNOW,81.052089,26.8582976,0,40,45,85,3,2,5,3,2
#0,LUCKNOW,PS NEWAJ NAGAR NEWAJ NAGAR LUCKNOW,80.9246886,26.90769,0,7,7,14,1,3,4,2,2
#0,LUCKNOW,PS SALAR GANJ JUGGAUR LUCKNOW,81.0809774,26.8738378,0,79,86,165,1,2,3,3,1
#0,LUCKNOW,PS SARAI SHAIKH SARAISHEKH LUCKNOW,81.0520052,26.8676172,0,68,60,128,0,5,5,4,1
#0,LUCKNOW,PS SEMRA SEMRA LUCKNOW,81.0403383,26.8773684,0,61,68,129,1,3,4,3,2
#0,LUCKNOW,PS SHAHPUR SHAHPUR LUCKNOW,81.0403383,26.8773684,0,37,27,64,0,3,3,3,1
#0,LUCKNOW,PS SIKANDARPUR KHURD SIKANDARPUR KHURD LUCKNOW,81.0722143,26.8371492,0,31,36,67,0,3,3,2,1
#0,LUCKNOW,PS BAGHAMAU BADHAMAU LUCKNOW,81.0227313,26.8265809,0,55,52,107,1,4,5,4,1
#0,LUCKNOW,PS CHANDIAMAU CHANDIAMU LUCKNOW,81.041857,26.826862,0,64,75,139,1,5,6,3,2
#0,LUCKNOW,PS KHARGAPUR KHARAKPUR LUCKNOW,81.0212,26.8367471,0,72,85,157,1,5,6,5,1
#0,LUCKNOW,P.S. LONAPUR-1 LONAPUR LUCKNOW,81.0506249,26.8281073,0,28,34,62,1,3,4,3,2
#0,LUCKNOW,P.S. LONAPUR-2 LONAPUR LUCKNOW,81.056891,26.8214337,0,50,59,109,0,4,4,3,1
#0,LUCKNOW,PS MAKDOOMPUR MAKDOOMPUR LUCKNOW,81.0129169,26.8399648,0,42,38,80,1,5,6,5,1
#0,LUCKNOW,P.S. MALASEMAU-1 MALESEMAU LUCKNOW,81.0150979,26.8285852,0,105,0,105,0,5,5,3,2
#0,LUCKNOW,P.S. MALASEMAU-2 MALESEMAU LUCKNOW,81.0150979,26.8285852,0,0,117,117,1,4,5,3,2
#0,LUCKNOW,PS DEWARIA DEWARIA LUCKNOW,81.0499348,26.8433952,0,36,73,109,2,2,4,3,1
#0,LUCKNOW,PS GADERIAN PURWA GADERIAN PURWA LUCKNOW,80.3006329,26.4610276,0,67,58,125,1,3,4,2,1
#0,LUCKNOW,PS HANSAMAU DEWARIA LUCKNOW,83.1568598,25.8713378,0,32,21,53,0,3,3,4,1
#0,LUCKNOW,PS JAIPAL KHEDA JAIPAL KHEDA LUCKNOW,72.6846658,22.750651,0,96,94,190,0,3,3,2,1
#0,LUCKNOW,PS KHALE DEWARIA KHALE DEWARIA LUCKNOW,81.0399603,26.8770713,0,67,61,128,1,2,3,4,2
#0,LUCKNOW,P.S. LAULAI-1 LAULAI LUCKNOW,81.059959,26.848626,0,65,78,143,0,5,5,4,1
#0,LUCKNOW,P.S. LAULAI-2 LAULAI LUCKNOW,81.059959,26.848626,0,125,120,245,0,3,3,2,1
#0,LUCKNOW,PS MALHAUR NIZAMPUR MALHAUR LUCKNOW,81.052089,26.8582976,0,62,70,132,0,5,5,6,2
#0,LUCKNOW,P.S. MALLHAUR-2 MALLAHUR LUCKNOW,80.910396,26.7829173,0,47,71,118,1,5,6,3,2
#0,LUCKNOW,PS PUSU KA PURWA PUSU KA PURWA LUCKNOW,81.0368211,26.8943893,0,15,19,34,1,2,3,2,3
#0,LUCKNOW,PS DHOWAILA DHOWAILA LUCKNOW,80.946166,26.8466937,0,33,37,70,3,1,4,3,2
#0,LUCKNOW,PS KAMLAPUR KAMALAPUR PURABGAON LUCKNOW,81.0399603,26.8770713,0,33,34,67,0,1,1,3,0
#0,LUCKNOW,PS KHATAIYYA KHATAIYYA LUCKNOW,80.946166,26.8466937,0,37,61,98,1,2,3,2,1
#0,LUCKNOW,PS KUNDARI BHAULI KUNDARI BHAULI LUCKNOW,80.9147625,26.8507962,0,24,26,50,0,2,2,4,1
#0,LUCKNOW,PS PURAB GAON PURABGAON LUCKNOW,80.8806703,26.9646169,0,60,44,104,0,4,4,5,1
#0,LUCKNOW,PS SARORA SARORA LUCKNOW,80.8723705,26.9378181,0,66,57,123,1,4,5,6,2
#0,LUCKNOW,P.S. BAKKAS-1 BAKKAS LUCKNOW,81.0617165,26.8028143,0,52,77,129,2,3,5,7,0
#0,LUCKNOW,P.S. BAKKAS-2 BAKKAS LUCKNOW,81.0617165,26.8028143,0,33,28,61,2,2,4,2,1
#0,LUCKNOW,PS CHAURASI CHAURASI LUCKNOW,80.946166,26.8466937,0,33,26,59,1,4,5,5,2
#0,LUCKNOW,PS CHURHEYA CHURHEYA LUCKNOW,80.9017795,26.7277238,0,27,31,58,1,3,4,3,2
#0,LUCKNOW,PS DHAKWA AHIRAN DHAKWA LUCKNOW,82.2989177,25.9300596,0,17,27,44,1,3,4,4,2
#0,LUCKNOW,PS DULARMAU DULAR MAU LUCKNOW,80.6964905,26.898581,0,28,37,65,1,3,4,5,1
#0,LUCKNOW,PS GANJARIYA FARM MADAR MAU KHURD LUCKNOW,81.0372129,26.7795818,0,62,82,144,1,6,7,6,0
#0,LUCKNOW,PS MALOOKPUR MALOOKPUR LUCKNOW,81.0617165,26.8028143,0,55,59,114,1,4,5,5,2
#0,LUCKNOW,PS MASTEMAU MASTEMAU LUCKNOW,81.0285377,26.809182,0,24,32,56,0,5,5,3,3
#0,LUCKNOW,PS MIRJAPUR MIRJAPUR LUCKNOW,80.9470374,26.9513981,0,41,28,69,1,4,5,5,1
#0,LUCKNOW,PS MULLA KHERA CHURHEYA LUCKNOW,79.2267875,28.8819328,0,15,40,55,2,3,5,5,2
#0,LUCKNOW,PS SHAIKHNAPUR GHAT SHAIKHNAPUR GHAT LUCKNOW,80.946166,26.8466937,0,32,25,57,2,3,5,5,2
#0,LUCKNOW,PS ADAMPUR BAHERA ADAMPUR BAHERA LUCKNOW,80.946166,26.8466937,0,33,29,62,2,2,4,3,2
#0,LUCKNOW,PS BAHRAULI BAHRAULI LUCKNOW,81.1830178,26.6903408,0,52,60,112,2,5,7,8,1
#0,LUCKNOW,PS BAJGAHIYA BAJGAHEYA LUCKNOW,81.166481,26.6834646,0,58,71,129,3,1,4,5,1
#0,LUCKNOW,PS GHORSARA GHORSARA LUCKNOW,81.1830178,26.6728024,0,71,80,151,1,3,4,5,1
#0,LUCKNOW,PS JAWAHAR SINGH KA PURWA BAHRAULI LUCKNOW,80.916626,26.8618779,0,47,60,107,3,1,4,6,1
#0,LUCKNOW,PS KHAWAS  KHERA KHAWAS KHERA LUCKNOW,81.1292603,26.7118261,0,27,21,48,2,2,4,5,2
#0,LUCKNOW,PS MAKHDOOM NAGAR MAKHDOOMPUR LUCKNOW,82.6064693,26.5857074,0,39,35,74,3,1,4,5,1
#0,LUCKNOW,PS RASOOLPUR ASHIK ALI RASOOLPUR ASHIK ALI LUCKNOW,81.1775059,26.7192252,0,40,53,93,1,3,4,5,2
#0,LUCKNOW,PS SAHZADEPUR SAHZADEPUR LUCKNOW,81.1623462,26.7080504,0,28,37,65,1,3,4,6,1
#0,LUCKNOW,PS SINGHAI KA PURWA BAHRAULI LUCKNOW,80.8613028,26.983781,0,26,39,65,1,3,4,5,1
#0,LUCKNOW,PS HASWA HASWA LUCKNOW,80.9124781,25.8713682,0,27,27,54,0,2,2,6,0
#0,LUCKNOW,PS AKARHANDOO AKARHANDOO LUCKNOW,81.1333968,26.6580141,0,19,14,33,2,1,3,5,1
#0,LUCKNOW,PS ANEYA KHARGAPUR ANEYA KHARGAPUR LUCKNOW,81.166481,26.6542331,0,56,49,105,3,1,4,4,2
#0,LUCKNOW,PS CHORAHA CHORHAPUR LUCKNOW,80.946166,26.8466937,0,63,73,136,1,3,4,4,1
#0,LUCKNOW,PS DALPAT KHEDA DALPAT KHEDA LUCKNOW,72.6846658,22.750651,0,17,24,41,1,3,4,4,1
#0,LUCKNOW,PS GULAL KHERA GULAL KHERA LUCKNOW,80.6784655,26.2414909,0,21,31,52,2,1,3,2,1
#0,LUCKNOW,PS HARDOIYA HARDOEYA LUCKNOW,80.8652477,26.8884892,0,44,33,77,3,1,4,5,2
#0,LUCKNOW,PS HARRAI HARAEE LUCKNOW,79.2212697,22.6241545,0,57,86,143,1,4,5,5,2
#0,LUCKNOW,PS HUSAINABAD HUSAINABAD LUCKNOW,80.9061994,26.8739101,0,8,19,27,2,0,2,2,0
#0,LUCKNOW,PS ISMAIL NAGAR ISMAIL NAGAR LUCKNOW,81.1209866,26.6265432,0,96,96,192,2,2,4,5,0
#0,LUCKNOW,PS MAMAIE MAU MAMAIEMAU LUCKNOW,83.5562366,25.9431287,0,45,56,101,3,1,4,4,1
#0,LUCKNOW,PS METAULI METAULI ADAMPUR LUCKNOW,81.1389118,26.6700512,0,38,42,80,1,3,4,5,1
#0,LUCKNOW,PS SELHUMAU SELHU MAU LUCKNOW,81.1333968,26.6813978,0,32,39,71,3,1,4,5,1
#0,LUCKNOW,PS SIRAUNA SARAUNA LUCKNOW,85.1297844,26.6340963,0,7,6,13,2,2,4,3,2
#0,LUCKNOW,PS VISHUNKHERA BISHUN KHEDA LUCKNOW,80.946166,26.8466937,0,108,116,224,2,2,4,5,2
#0,LUCKNOW,PS PURAN KHEDA PURAN KHEDA LUCKNOW,80.946166,26.8466937,0,8,10,18,1,2,3,2,1
#0,LUCKNOW,PS ASTI ASTI LUCKNOW,80.9713879,26.9922365,0,27,18,45,1,2,3,3,1
#0,LUCKNOW,PS DAKHINWARA DAKHINWARA LUCKNOW,82.1159344,26.4579295,0,73,81,154,2,2,4,5,1
#0,LUCKNOW,PS GODAULI SARAI GODAULI LUCKNOW,80.946166,26.8466937,0,23,21,44,2,2,4,5,3
#0,LUCKNOW,PS KAPERAMADARPUR KAPERA MADARPUR LUCKNOW,81.1278814,26.7044336,0,43,44,87,2,2,4,5,2
#0,LUCKNOW,PS KARSANDA KARSANDA LUCKNOW,81.1223656,26.6923977,0,70,44,114,1,3,4,5,2
#0,LUCKNOW,PS KAZEE KHERA BAGHAULI KAZEE KHERA LUCKNOW,80.2962385,27.2211262,0,25,16,41,2,2,4,5,2
#0,LUCKNOW,PS KEWALI KEWALI LUCKNOW,81.1099536,26.6930803,0,32,35,67,2,2,4,4,2
#0,LUCKNOW,PS MADARPUR KAPERA MADARPUR LUCKNOW,81.1278814,26.7044336,0,54,45,99,2,2,4,5,1
#0,LUCKNOW,PS MAHURA KALA MAHURA KALA LUCKNOW,81.1251235,26.7247171,0,21,12,33,0,4,4,5,2
#0,LUCKNOW,PS PANCHSARA PANJSARA LUCKNOW,81.1292603,26.7118261,0,37,47,84,2,2,4,5,2
#0,LUCKNOW,PS RAMPUR MAHURA KALA RAMPUR LUCKNOW,81.3190225,27.3614079,0,51,60,111,2,2,4,4,2
#0,LUCKNOW,PS SARAIE SARAI GODAULI LUCKNOW,80.9460265,26.8466737,0,32,24,56,1,3,4,3,2
#0,LUCKNOW,PS SEKHAHMADPUR PANJSARA LUCKNOW,81.1292603,26.7118261,0,32,44,76,4,1,5,5,2
#0,LUCKNOW,PS CHAND SARAY CHAND SARAY LUCKNOW,81.0847209,26.771165,0,19,31,50,0,2,2,2,0
#0,LUCKNOW,PS GOSHAI GANJ KORIYANI LUCKNOW,81.1044366,26.7716277,0,24,29,53,1,3,4,3,1
#0,LUCKNOW,PS KASIMPUR KASIMPUR BIRUHA LUCKNOW,80.9104041,26.802355,0,53,40,93,1,5,6,5,2
#0,LUCKNOW,PS MALAULI MALAULI LUCKNOW,81.1113328,26.785208,0,72,46,118,1,4,5,6,1
#0,LUCKNOW,PS NAWAB ALI KA PURWA KASIMPUR BIRUHA LUCKNOW,80.91129,26.86438,0,83,69,152,2,3,5,5,1
#0,LUCKNOW,PS SALAULI SALAIULI LUCKNOW,81.0837442,26.795154,0,5,6,11,1,3,4,4,2
#0,LUCKNOW,PS SEMNAPUR SEMNAPUR LUCKNOW,80.946166,26.8466937,0,73,64,137,4,1,5,5,2
#0,LUCKNOW,PS BAJOOPUR BAJOOPUR LUCKNOW,80.9484195,26.8537051,0,37,35,72,1,3,4,5,2
#0,LUCKNOW,PS BAKHARI BAKHARI LUCKNOW,81.0989191,26.8063349,0,51,45,96,1,4,5,5,2
#0,LUCKNOW,PS DAUDAMAU DAUDAMAU LUCKNOW,81.0997918,26.8302652,0,30,36,66,1,3,4,5,1
#0,LUCKNOW,PS FARIDPUR FARIDPUR LUCKNOW,89.8333382,23.6018691,0,36,42,78,2,1,3,3,0
#0,LUCKNOW,PS MAHMOODPUR MAHAMOODPUR LUCKNOW,81.0934013,26.8205913,0,43,57,100,4,1,5,5,1
#0,LUCKNOW,PS MARKHAPUR FARIDPUR LUCKNOW,81.2050614,26.8378174,0,119,160,279,2,5,7,6,1
#0,LUCKNOW,PS MEESA MEESA LUCKNOW,81.0961603,26.7973979,0,33,48,81,1,3,4,5,1
#0,LUCKNOW,PS MIRDAHA KHERA MIRDAHA KHERA LUCKNOW,81.042136,26.8471296,0,81,89,170,2,3,5,5,2
#0,LUCKNOW,PS NOORPUR BEHTA NOORPUR BEHTA LUCKNOW,81.072706,26.8236648,0,22,29,51,2,2,4,3,2
#0,LUCKNOW,PS SALLAHIMAU SALLAHIMAU LUCKNOW,81.0878831,26.8319257,0,57,59,116,2,2,4,5,1
#0,LUCKNOW,PS SENGATA SENGATA LUCKNOW,80.946166,26.8466937,0,35,39,74,4,1,5,5,1
#0,LUCKNOW,PS SUREYAMAU SUREYA MAU LUCKNOW,81.0309614,26.7867318,0,61,55,116,3,2,5,5,2
#0,LUCKNOW,PS BASRAHIYA BASRAHIYA LUCKNOW,81.1341264,26.7480694,0,105,79,184,2,3,5,3,2
#0,LUCKNOW,PS BASTIYA BASTIYA LUCKNOW,83.1796379,26.5791112,0,20,37,57,1,3,4,5,1
#0,LUCKNOW,PS HASNAPUR HASNAPUR LUCKNOW,80.911691,26.808634,0,44,56,100,1,3,4,6,2
#0,LUCKNOW,PS JAUKHANDI JAKHNADI LUCKNOW,81.1554545,26.694468,0,27,26,53,1,3,4,4,2
#0,LUCKNOW,PS KAMALAPUR KAMALAPUR LUCKNOW,81.0399603,26.8770713,0,38,50,88,2,3,5,5,1
#0,LUCKNOW,PS KHEMA KHEDA KHEMA KHEDA LUCKNOW,72.6846658,22.750651,0,16,28,44,1,3,4,5,2
#0,LUCKNOW,PS KUTUBPUR KUTUBPUR LUCKNOW,80.9313434,26.8706737,0,23,22,45,2,2,4,4,2
#0,LUCKNOW,PS MAHURA KHURD MAHURA KHURD LUCKNOW,81.1423585,26.732372,0,30,24,54,1,2,3,5,1
#0,LUCKNOW,PS MUKUND KHERA JAKHNADI LUCKNOW,81.1573702,26.6893514,0,21,33,54,2,3,5,5,2
#0,LUCKNOW,PS SAIDPUR DAUDPUR SAIDPUR DAUDPUR LUCKNOW,80.8107812,26.8615988,0,28,26,54,1,2,3,2,0
#0,LUCKNOW,PS SEKHNAPUR SEKHNAPUR LUCKNOW,80.8741958,26.8544592,0,20,22,42,1,3,4,5,2
#0,LUCKNOW,PS AMETHI  (ANSARI WARD) AMETHI LUCKNOW,81.1554545,26.7529157,0,32,30,62,2,2,4,4,2
#0,LUCKNOW,PS AMETHI (URDU) AMETHI LUCKNOW,81.814238,26.1540538,0,44,63,107,1,4,5,3,2
#0,LUCKNOW,P.S. AMETHI-1 AMETHI LUCKNOW,81.814238,26.1540538,0,44,44,88,2,3,5,4,2
#0,LUCKNOW,P.S. AMETHI-2 AMETHI LUCKNOW,81.1554545,26.7529157,0,101,104,205,0,4,4,3,1
#0,LUCKNOW,PS CHAMARTALIYA CHAMATALIYA LUCKNOW,81.1678592,26.763918,0,50,52,102,1,3,4,4,1
#0,LUCKNOW,PS DHAURAHRA DHAURAHRA LUCKNOW,81.0354406,27.3565321,0,37,36,73,2,2,4,5,1
#0,LUCKNOW,PS FATEHPUR FATEHPUR LUCKNOW,80.946166,26.8466937,0,48,53,101,2,2,4,3,1
#0,LUCKNOW,P.S. GHUSKAR-1 GHUSKAR LUCKNOW,81.1940404,26.7728563,0,8,17,25,3,1,4,5,1
#0,LUCKNOW,P.S. GHUSKAR-2 GHUSKAR LUCKNOW,81.1940404,26.7728563,0,54,50,104,1,3,4,5,2
#0,LUCKNOW,PS HUSAINPUR GHUSKAR LUCKNOW,81.1940404,26.7728563,0,51,44,95,2,2,4,4,1
#0,LUCKNOW,PS MOHAMMADABAD MOHAMMADABAD LUCKNOW,79.4355709,27.3056462,0,29,28,57,2,2,4,5,2
#0,LUCKNOW,PS BHATWARA BHATWARA LUCKNOW,81.0575259,26.7599032,0,21,23,44,2,2,4,4,1
#0,LUCKNOW,PS KABIRPUR KABIR PUR LUCKNOW,81.0658063,26.7721121,0,15,21,36,3,1,4,5,1
#0,LUCKNOW,PS KINAUNA KINAUNA LUCKNOW,81.064273,26.7431256,0,27,28,55,1,4,5,4,2
#0,LUCKNOW,PS KUWAR BAHADUR KHERA KUWAR BAHADUR KHERA LUCKNOW,80.8935506,26.8057399,0,22,31,53,1,2,3,4,0
#0,LUCKNOW,PS MAGHUA MAGHUA LUCKNOW,81.0837442,26.7600986,0,12,14,26,1,1,2,2,0
#0,LUCKNOW,PS MAIJI KA PURWA SONAEE KAZEHRA LUCKNOW,80.771321,26.4566318,0,40,62,102,2,2,4,5,2
#0,LUCKNOW,PS MUAZZAM NAGAR MUAZZAM NAGAR LUCKNOW,81.0129169,26.8399648,0,39,45,84,2,3,5,5,3
#0,LUCKNOW,P.S. PAHAR NAGAR-1 PAHAR NAGAR TIKARIYA LUCKNOW,81.0506249,26.7696909,0,48,34,82,0,3,3,5,1
#0,LUCKNOW,P.S. PAHAR NAGAR-2 PAHAR NAGAR TIKARIYA LUCKNOW,81.0506249,26.7696909,0,38,34,72,1,3,4,5,0
#0,LUCKNOW,PS RAKIBABAD RAKIBABAD LUCKNOW,81.0395821,26.7456207,0,34,40,74,1,3,4,2,1
#0,LUCKNOW,PS SATHWARA SATHWARA LUCKNOW,81.072706,26.7652448,0,77,87,164,0,5,5,5,1
#0,LUCKNOW,PS SIDHPURA SIDDHPURA LUCKNOW,78.8679886,27.6319594,0,60,56,116,0,4,4,5,1
#0,LUCKNOW,PS SIKANDARPUR AMAULIYA SIKANDARPUR AMAULIYA LUCKNOW,81.0228422,26.6621976,0,24,19,43,3,1,4,5,1
#0,LUCKNOW,PS SONAEE KAZEHRA SONAEE KAZEHRA LUCKNOW,81.0338857,26.7753641,0,75,76,151,1,4,5,5,1
#0,LUCKNOW,PS BARUWA BARUWA LUCKNOW,81.1719936,26.7539492,0,55,62,117,1,4,5,5,1
#0,LUCKNOW,PS BHADUWA BHAGUA LUCKNOW,83.7066289,26.5666537,0,60,62,122,1,4,5,6,2
#0,LUCKNOW,PS GOMI KHERA GOMI KHERA LUCKNOW,81.1623462,26.7197406,0,34,34,68,2,2,4,4,1
#0,LUCKNOW,PS JALAUDI NAGAR JALLAUNDI NAGAR LUCKNOW,80.9944236,26.854442,0,43,30,73,2,2,4,5,1
#0,LUCKNOW,PS LODH PURWA SALEMPUR LUCKNOW,83.9241376,26.293939,0,39,45,84,3,1,4,3,1
#0,LUCKNOW,P.S. MOHDPUR GARHI MOHD.PUR GARHI LUCKNOW,78.5135489,29.5392965,0,33,50,83,0,4,4,5,2
#0,LUCKNOW,PS RAHMAT NAGAR RAHMAT NAGAR LUCKNOW,81.1719936,26.7422607,0,43,52,95,2,2,4,5,1
#0,LUCKNOW,PS RAMPUR NEW GOMI KHERA LUCKNOW,79.0220287,28.798299,0,91,129,220,2,5,7,5,2
#0,LUCKNOW,PS SALEMPUR SALEMPUR LUCKNOW,80.8332208,26.8459294,0,22,17,39,0,2,2,4,0
#0,LUCKNOW,PS SHIFAT NAGAR NAVEEN SHIFAT NAGAR LUCKNOW,80.946166,26.8466937,0,85,105,190,0,5,5,3,1
#0,LUCKNOW,PS SHIFAT NAGAR OLD BASTAULI LUCKNOW,81.1885293,26.7549806,0,49,54,103,3,2,5,5,2
#0,LUCKNOW,PS BELI KALA BELI LUCKNOW,81.0782253,26.7480642,0,91,102,193,1,2,3,4,1
#0,LUCKNOW,PS ECHWALIYA ECHWALIYA LUCKNOW,80.946166,26.8466937,0,30,16,46,0,4,4,3,2
#0,LUCKNOW,P.S. GOSAINGANJ-2 SHIVLAR LUCKNOW,81.092582,26.7588526,0,20,40,60,2,2,4,6,2
#0,LUCKNOW,PS JAGMOHAN PURWA JAMALPUR KURMIYAN LUCKNOW,80.771321,26.4566318,0,49,69,118,2,2,4,3,1
#0,LUCKNOW,PS PAHASA ITCHWALIYA PAHASA LUCKNOW,80.946166,26.8466937,0,61,75,136,1,3,4,5,1
#0,LUCKNOW,PS RAJJAKPUR RAJJAKPUR LUCKNOW,82.8054823,26.1769435,0,14,16,30,2,2,4,5,1
#0,LUCKNOW,PS RATEYAMAU RATEYA MAU LUCKNOW,81.1058159,26.7381149,0,26,19,45,2,2,4,5,2
#0,LUCKNOW,PS SHIVLAR SHIVLAR LUCKNOW,81.092582,26.7588526,0,44,50,94,3,1,4,5,2
#0,LUCKNOW,PS ANOOP KHERA SITHAULI KALA LUCKNOW,80.9509918,26.7974522,0,91,94,185,0,6,6,5,2
#0,LUCKNOW,PS BHATI BARKAT NAGAR BHATTI BARKAT NAGAR LUCKNOW,81.0691891,26.6910207,0,38,30,68,3,1,4,6,2
#0,LUCKNOW,PS BHAURA KALA BHAURA KALLA LUCKNOW,77.4464288,29.3876313,0,93,76,169,3,1,4,5,1
#0,LUCKNOW,PS BHAURA KHURD BHAURA KHURD LUCKNOW,81.0947808,26.6789756,0,20,21,41,3,2,5,2,2
#0,LUCKNOW,PS DAEETIKAR DAEETIKAR LUCKNOW,81.0671863,26.7064613,0,41,40,81,2,3,5,5,2
#0,LUCKNOW,PS DEHRAMAU DEHRAMAU LUCKNOW,81.0947808,26.7315768,0,32,49,81,4,1,5,3,2
#0,LUCKNOW,PS MOHARI KALA MOHARI KALA LUCKNOW,81.0506249,26.7229468,0,23,22,45,1,3,4,5,2
#0,LUCKNOW,PS MOHARI KHURD MOHARI KHURD LUCKNOW,81.0506249,26.7229468,0,50,52,102,3,2,5,4,2
#0,LUCKNOW,PS NANDA KHERA BHATTI BARKAT NAGAR LUCKNOW,81.072706,26.3851498,0,41,55,96,2,2,4,4,2
#0,LUCKNOW,PS RAIPUR SADRA RAIPUR SADRA LUCKNOW,80.9257972,26.9342873,0,38,25,63,1,3,4,6,2
#0,LUCKNOW,PS SEMRAPITPUR SEMRAPITPUR LUCKNOW,80.946166,26.8466937,0,33,44,77,2,3,5,5,2
#0,LUCKNOW,PS SITHAULI KALA SITHAULI KALA LUCKNOW,81.0809848,26.7102536,0,40,42,82,3,2,5,5,1
#0,LUCKNOW,PS SITHAULI KHURD SITHAULI KHURD LUCKNOW,81.0724898,26.7177737,0,52,52,104,0,4,4,5,2
#0,LUCKNOW,PS TEKRA JUGRAJ TEKRA JUGRAJ LUCKNOW,81.0782253,26.6779339,0,23,44,67,3,2,5,5,2
#0,LUCKNOW,PS ALIYAMAU ALIYA MAU LUCKNOW,81.1265025,26.8168342,0,27,23,50,1,3,4,3,2
#0,LUCKNOW,PS BEGARIYA MAU BEGARIYA LUCKNOW,81.1168494,26.7972401,0,34,40,74,1,2,3,5,1
#0,LUCKNOW,PS GAUREYA KALA GAUREYA KALA LUCKNOW,80.9456553,28.1717648,0,31,38,69,0,4,4,4,2
#0,LUCKNOW,PS GAUREYA KHURD GAUREYA KALA LUCKNOW,81.0395821,26.6696501,0,56,75,131,2,3,5,7,2
#0,LUCKNOW,PS HALIMABAD GAUREYA KALA LUCKNOW,83.4043088,26.0166763,0,20,25,45,0,2,2,2,0
#0,LUCKNOW,PS JAHANGEERPUR JAHANGEER PUR LUCKNOW,81.1058159,26.8140719,0,40,32,72,1,3,4,4,2
#0,LUCKNOW,PS JALLABAD JALLABAD LUCKNOW,80.946166,26.8466937,0,49,41,90,2,3,5,4,1
#0,LUCKNOW,PS KAZEE KHERA KAZEE KHERA LUCKNOW,80.946166,26.8466937,0,32,46,78,1,3,4,5,2
#0,LUCKNOW,PS NIZAMPUR NIZAMPUR LUCKNOW,81.1278814,26.7862482,0,37,52,89,2,2,4,4,2
#0,LUCKNOW,PS RANI KHEDA RANIKHEDA LUCKNOW,80.9843446,26.6895221,0,78,77,155,1,4,5,5,2
#0,LUCKNOW,PS TANT KA PURWA GAUREYA KALA LUCKNOW,80.771321,26.4566318,0,14,11,25,1,2,3,3,1
#0,LUCKNOW,PS TIKANIYAMAU TIKANIYAMAU LUCKNOW,80.946166,26.8466937,0,37,41,78,1,3,4,5,2
#0,LUCKNOW,PS AMETHIYA SALEMPUR AMETHIYA SALEMPUR LUCKNOW,80.8139746,26.8809687,0,63,46,109,2,4,6,3,2
#0,LUCKNOW,PS BAJ NAGAR AMETHIYA SALEMPUR LUCKNOW,80.3742163,27.5406773,0,91,94,185,0,7,7,2,2
#0,LUCKNOW,PS BHAWANI KHEDA BHAWANI KHEDA LUCKNOW,80.785171,26.8693966,0,48,55,103,0,3,3,2,1
#0,LUCKNOW,P.S. DURGA GANJ ADDI. TOWN AREA LUCKNOW,80.799552,26.8829644,0,35,28,63,0,4,4,4,2
#0,LUCKNOW,P.S. GURUDEEN KHERA ADDI. TOWN AREA LUCKNOW,80.89597,26.80249,0,58,45,103,0,6,6,5,1
#0,LUCKNOW,PS HALUWAPUR HALUWAPUR LUCKNOW,80.9484195,26.8537051,0,22,19,41,1,4,5,3,2
#0,LUCKNOW,PS IMLI TALA TOWN AREA LUCKNOW,80.946166,26.8466937,0,27,19,46,1,4,5,4,2
#0,LUCKNOW,P.S. KAKORI-1 TOWN AREA LUCKNOW,80.7851986,26.8641567,0,58,68,126,0,6,6,4,2
#0,LUCKNOW,P.S. KAKORI-2 TOWN AREA LUCKNOW,80.7851986,26.8641567,0,39,37,76,0,5,5,5,1
#0,LUCKNOW,PS KUSMAURA KUSMAURA LUCKNOW,80.9677659,26.5891031,0,90,77,167,0,8,8,6,2
#0,LUCKNOW,PS MAHIPATMAU MAHIPATMAU LUCKNOW,80.8382239,26.8857776,0,74,65,139,1,5,6,3,2
#0,LUCKNOW,PS MAULVI KHEDA MAULVI KHEDA LUCKNOW,72.6846658,22.750651,0,83,95,178,0,5,5,3,1
#0,LUCKNOW,PS PAHIYA AZAMPUR PAHIYA AJAMPUR LUCKNOW,78.2170744,29.0353017,0,19,22,41,0,4,4,2,1
#0,LUCKNOW,PS TOWN AREA TOWN AREA LUCKNOW,80.945272,26.904054,0,45,41,86,1,5,6,5,2
#0,LUCKNOW,P.S. BARA GAON-1 BARA GAON LUCKNOW,82.81828,25.4252542,0,64,71,135,0,6,6,2,2
#0,LUCKNOW,P.S. BARA GAON-2 BARA GAON LUCKNOW,81.0399603,26.8770713,0,60,52,112,2,2,4,6,2
#0,LUCKNOW,PS BINGHU BIGAHU LUCKNOW,80.946166,26.8466937,0,43,41,84,3,3,6,4,2
#0,LUCKNOW,PS DASDOIE DASDOIE LUCKNOW,80.946166,26.8466937,0,48,38,86,1,3,4,5,0
#0,LUCKNOW,PS GOHRAMAU GOHRAMAU LUCKNOW,80.7560834,26.8572771,0,37,55,92,0,4,4,5,2
#0,LUCKNOW,PS GWALPUR GWALPUR LUCKNOW,80.946166,26.8466937,0,44,39,83,0,5,5,3,2
#0,LUCKNOW,PS KARIMABAD KARIMABAD LUCKNOW,80.8017877,26.8412959,0,29,31,60,0,3,3,4,1
#0,LUCKNOW,PS KARZHAN KARGHAN LUCKNOW,80.946166,26.8466937,0,28,21,49,2,2,4,3,1
#0,LUCKNOW,PS MUBARAKPUR MUBARAKPUR LUCKNOW,80.904766,26.937585,0,19,21,40,2,2,4,2,2
#0,LUCKNOW,PS TERWA TERWA LUCKNOW,80.7131255,26.7187167,0,37,27,64,0,4,4,5,2
#0,LUCKNOW,PS BANDA KHEDA BANDA KHEDA LUCKNOW,80.3395498,25.4762689,0,23,32,55,1,3,4,4,1
#0,LUCKNOW,PS BASRAILA BASRAILA LUCKNOW,80.946166,26.8466937,0,16,12,28,1,3,4,4,2
#0,LUCKNOW,PS BEHRU BEHRU LUCKNOW,80.9500908,26.8211722,0,20,21,41,1,2,3,4,1
#0,LUCKNOW,PS CHAUKHDI KHEDA CHAUKHDI KHEDA LUCKNOW,72.6846658,22.750651,0,40,51,91,1,3,4,5,2
#0,LUCKNOW,PS DARIYAPUR DARIYAPUR LUCKNOW,80.6784656,26.8755069,0,40,24,64,0,4,4,3,1
#0,LUCKNOW,PS GOSALALPUR GOSALALPUR LUCKNOW,80.668758,26.8734053,0,28,26,54,0,7,7,3,2
#0,LUCKNOW,PS KHANPURMAU KHANPURMAU LUCKNOW,80.6853986,26.8628356,0,45,49,94,2,3,5,3,1
#0,LUCKNOW,PS MAHMAD KHERA GOSALALPUR LUCKNOW,80.785171,26.8693966,0,30,29,59,1,3,4,3,2
#0,LUCKNOW,PS MEHNDI NAGAR BEHRU LUCKNOW,80.7075809,26.8584643,0,45,30,75,0,5,5,4,1
#0,LUCKNOW,PS SAIFALPUR SAIFALPUR LUCKNOW,76.4436551,30.4874282,0,31,24,55,1,4,5,5,2
#0,LUCKNOW,PS SARAI ALIPUR SARAI ALIPUR LUCKNOW,80.7172837,26.889742,0,32,26,58,1,5,6,3,2
#0,LUCKNOW,PS SHERPUR MAU SHERPURMAU LUCKNOW,80.6964905,26.8694043,0,46,44,90,1,3,4,4,2
#0,LUCKNOW,PS ADAMPUR INDWARA ADAMPUR INDWARA LUCKNOW,80.785171,26.8693966,0,24,37,61,3,3,6,3,2
#0,LUCKNOW,PS BHALIYA BHALIYA LUCKNOW,80.7408429,26.8548174,0,13,17,30,2,3,5,2,2
#0,LUCKNOW,PS BHATAU JAMALPUR BHATAU JAMALPUR LUCKNOW,80.7408429,26.8664903,0,46,51,97,2,3,5,5,0
#0,LUCKNOW,PS BHATAU JAMALPUR NAVEN BHATAU JAMALPUR LUCKNOW,80.7408429,26.8664903,0,29,18,47,0,5,5,4,2
#0,LUCKNOW,PS BHULAI KHEDA BHULAI KHEDA LUCKNOW,72.6846658,22.750651,0,27,20,47,0,4,4,4,1
#0,LUCKNOW,PS DONA DONA LUCKNOW,80.8805,26.8649,0,27,30,57,1,2,3,4,1
#0,LUCKNOW,PS GAHALWARA GAHALWARA LUCKNOW,80.9484195,26.8537051,0,77,93,170,2,5,7,4,1
#0,LUCKNOW,PS JALIYAMAU JALIYAMAU LUCKNOW,80.7519272,26.8438714,0,22,31,53,1,4,5,3,1
#0,LUCKNOW,PS KUSMI KUSMI LUCKNOW,80.7255995,26.8581924,0,55,47,102,1,4,5,4,0
#0,LUCKNOW,PS MADHWAPUR JALIYAMAU LUCKNOW,80.7192565,26.9530825,0,16,24,40,1,3,4,6,2
#0,LUCKNOW,PS REVARI GAHALWARA LUCKNOW,80.7145116,26.8370343,0,53,44,97,1,3,4,4,2
#0,LUCKNOW,PS SAMRAMAU BHALIYA LUCKNOW,80.9126953,26.8689349,0,24,20,44,1,4,5,2,2
#0,LUCKNOW,PS SHAHPUR SHAHPUR LUCKNOW,81.0403383,26.8773684,0,32,25,57,1,4,5,4,2
#0,LUCKNOW,PSBADBDA KHEDA BADHI KHEDA LUCKNOW,77.2369229,29.9038293,0,29,36,65,1,4,5,5,2
#0,LUCKNOW,JHS AMANIGANJ BANAUGA LUCKNOW,80.9252668,27.1399514,0,51,49,100,1,5,6,3,0
#0,LUCKNOW,JHS GOHNA KHURD GOHNA KHURD LUCKNOW,80.9069472,27.1106999,0,28,34,62,1,1,2,4,0
#0,LUCKNOW,JHS SARAI DAMU SARAI DAMU LUCKNOW,80.95118,26.87299,0,21,30,51,1,3,4,3,0
#0,LUCKNOW,JHS SHIVRI SHIVARI LUCKNOW,80.771321,26.807197,0,18,37,55,1,3,4,4,0
#0,LUCKNOW,KRM KANYA VID AMANIGANJ BANAUGA LUCKNOW,80.3575128,25.0261374,0,29,33,62,2,2,4,3,0
#0,LUCKNOW,JHS ASTI ASTI LUCKNOW,80.95118,26.87299,0,56,49,105,2,8,10,4,0
#0,LUCKNOW,JHS BHAKAMAU BHAKAMAU LUCKNOW,81.0016159,26.9749346,0,53,53,106,0,4,4,3,0
#0,LUCKNOW,JHS MANPUR LALA MANPUR BANA LUCKNOW,80.9304508,26.9970143,0,32,37,69,0,5,5,3,0
#0,LUCKNOW,JHS BARAKHEMPUR BARAKHEMPUR LUCKNOW,80.9788187,27.0103407,0,37,32,69,1,4,5,4,0
#0,LUCKNOW,KRM KANYA VID GORVAMAU GORVAMAU LUCKNOW,80.3575128,25.0261374,0,33,50,83,0,3,3,4,0
#0,LUCKNOW,JHS ASNAHA ASNAHA LUCKNOW,81.0211833,26.8832647,0,57,64,121,0,4,4,3,0
#0,LUCKNOW,JHS ATESUA ATESUA LUCKNOW,80.89296,27.0813467,0,67,84,151,2,6,8,4,0
#0,LUCKNOW,JHS DHILWASI DILVASI LUCKNOW,80.855233,26.8995862,0,57,57,114,3,3,6,4,0
#0,LUCKNOW,JHS SHITAL PURWA SHITAL PURWA LUCKNOW,80.771321,26.4566318,0,33,32,65,2,2,4,4,0
#0,LUCKNOW,JHS BAGHA BAGAHA LUCKNOW,84.0722375,27.1221959,0,68,95,163,1,10,11,5,0
#0,LUCKNOW,JHS BAHAR GAON BAHAR GAON LUCKNOW,78.5684594,25.4484257,0,35,38,73,1,3,4,5,0
#0,LUCKNOW,JHS EKDARIYA KALA IKDARIYA KALA LUCKNOW,80.855233,26.8995862,0,36,40,76,3,2,5,4,0
#0,LUCKNOW,JHS HARDA COLONY IKDARIYA KALA LUCKNOW,80.9235387,26.9834389,0,67,65,132,6,3,9,5,0
#0,LUCKNOW,JHS SURAJPUR GARHA SAHADAT NAGAR LUCKNOW,82.8679549,23.2136011,0,29,28,57,3,1,4,4,0
#0,LUCKNOW,JHS YAMKHANWA JAMKHANWA LUCKNOW,80.9346545,26.8529186,0,79,98,177,1,6,7,7,0
#0,LUCKNOW,JHS BHAISAMAU BHAISAMAU LUCKNOW,80.855233,26.8995862,0,32,47,79,0,3,3,3,0
#0,LUCKNOW,JHS MAMPUR BANA MAMPUR BANA LUCKNOW,80.9337184,26.9931596,0,48,48,96,4,3,7,4,0
#0,LUCKNOW,JHS NAGVAMAU KALA NAGAMAU KALA LUCKNOW,80.95118,26.87299,0,73,92,165,0,6,6,3,0
#0,LUCKNOW,JHS SARAIYA SARAIYA LUCKNOW,80.9110954,26.9636695,0,80,111,191,2,12,14,6,0
#0,LUCKNOW,JHS SONWA SONAVA LUCKNOW,80.855233,26.8995862,0,129,103,232,1,7,8,6,2
#0,LUCKNOW,KRMACHRAMAU ACHRAMAU LUCKNOW,80.2181886,27.1749277,0,0,63,63,1,4,5,2,0
#0,LUCKNOW,JHS ARJUNPUR ARJUNPUR LUCKNOW,80.855233,26.8995862,0,63,70,133,3,8,11,8,0
#0,LUCKNOW,JHS BIBIPUR BIBIPUR LUCKNOW,81.0134759,26.9009067,0,28,27,55,0,4,4,3,0
#0,LUCKNOW,JHS KAMALPUR SIRSA KAMALPUR SIRSA LUCKNOW,80.89296,27.0813467,0,43,43,86,0,5,5,4,0
#0,LUCKNOW,JHS DEVRAIE KALAN DEVRAIE KALA LUCKNOW,80.95118,26.87299,0,36,24,60,0,5,5,4,0
#0,LUCKNOW,JHS RAJAPUR INDAURA BAGH RAJAPUR INDAURA LUCKNOW,80.901416,27.0053471,0,105,87,192,0,5,5,4,0
#0,LUCKNOW,KRM KANYA VID BHAULI BHAULI LUCKNOW,80.3575128,25.0261374,0,44,57,101,0,7,7,4,0
#0,LUCKNOW,JHS GOHNA KALA GOHNA KALA LUCKNOW,80.855233,26.8995862,0,72,91,163,1,6,7,5,0
#0,LUCKNOW,JHS GURAMBA GURAMBA LUCKNOW,80.9788187,26.9344702,0,76,91,167,0,5,5,3,0
#0,LUCKNOW,JHS RASOOLPUR KAYASTH RASOOLPUR KAYASTH LUCKNOW,80.9575663,26.945823,0,128,98,226,2,3,5,4,0
#0,LUCKNOW,JHS HARDHAURPUR HARDAURPUR LUCKNOW,81.0211833,26.8832647,0,120,121,241,1,7,8,4,0
#0,LUCKNOW,JHS KATHWARA KATHWARA LUCKNOW,80.8481579,27.0186582,0,64,91,155,1,4,5,3,0
#0,LUCKNOW,JHS RAJAPUR RAJAPUR LUCKNOW,81.0211833,26.8832647,0,94,90,184,4,5,9,5,0
#0,LUCKNOW,JHS SINGHAMAU SINGHAMAU LUCKNOW,80.886203,27.052488,0,33,20,53,1,5,6,5,0
#0,LUCKNOW,JHS BHARATPUR BARGADI BARGADI KALA LUCKNOW,77.5029996,27.2151863,0,21,27,48,2,2,4,4,0
#0,LUCKNOW,JHS DARIAPUR DARIAPUR LUCKNOW,80.9453043,26.9038998,0,49,45,94,0,5,5,4,0
#0,LUCKNOW,JHS KUMHRANWA KUMHARAVA LUCKNOW,80.9744532,27.0894176,0,96,0,96,2,4,6,3,0
#0,LUCKNOW,JHS UNAIE UNAI LUCKNOW,80.855233,26.8995862,0,54,53,107,0,9,9,4,0
#0,LUCKNOW,JHS GULALPUR GULALAPUR LUCKNOW,80.9453043,26.9038998,0,41,41,82,0,4,4,4,0
#0,LUCKNOW,JHS PARSAHIYA PARSAHIA LUCKNOW,80.942153,26.896218,0,38,28,66,0,3,3,4,0
#0,LUCKNOW,KRM KUMHRANWA KUMHARAVA LUCKNOW,80.9747461,27.0924892,0,0,118,118,1,3,4,3,0
#0,LUCKNOW,JHS MAHIGAVA MAHIGAVA LUCKNOW,80.95118,26.87299,0,79,67,146,0,7,7,5,0
#0,LUCKNOW,JHS NAROSA NAROSA LUCKNOW,80.855233,26.8995862,0,96,105,201,5,3,8,3,0
#0,LUCKNOW,JHS PALIYA PALIYA LUCKNOW,80.946166,26.8466937,0,113,111,224,1,5,6,3,1
#0,LUCKNOW,JHS TIKRI TIKARI LUCKNOW,80.9453043,26.9038998,0,42,47,89,0,4,4,3,0
#0,LUCKNOW,JHS INDARA INDARA LUCKNOW,78.5684594,25.4484257,0,49,72,121,1,4,5,4,0
#0,LUCKNOW,JHS GODHANA GODHANA LUCKNOW,81.0009199,27.1342659,0,66,62,128,5,6,11,4,0
#0,LUCKNOW,JHS MUSPIPRI MUSPIPRI LUCKNOW,80.95118,26.87299,0,34,36,70,1,3,4,5,0
#0,LUCKNOW,JHS SHAHPUR SHAHPUR LUCKNOW,80.855233,26.8995862,0,28,31,59,1,3,4,4,0
#0,LUCKNOW,JHS UMARGARH UMARGARH LUCKNOW,80.942153,26.896218,0,23,20,43,0,3,3,4,0
#0,LUCKNOW,JHS GADREHIYA GADREHIYA LUCKNOW,80.855233,26.8995862,0,21,26,47,2,3,5,5,0
#0,LUCKNOW,JHS BARHAULI KAMLABAD BARHAULI LUCKNOW,80.9259447,26.9515245,0,20,36,56,2,2,4,3,0
#0,LUCKNOW,JHS SARAKPUR SARAIYA SARAKPUR SARAIYA LUCKNOW,80.9193912,26.9612877,0,153,152,305,0,13,13,6,0
#0,LUCKNOW,KANYA JHS BARGADI BARGADI MAGATH LUCKNOW,80.3575128,25.0261374,0,27,26,53,0,4,4,4,0
#0,LUCKNOW,KANYA JHS NABIKOT NANDANA NABIKOT NANDANA LUCKNOW,80.9241668,26.9607693,0,0,74,74,1,4,5,4,0
#0,LUCKNOW,JHS KHANTARI KHANTARI LUCKNOW,80.9898701,27.0343899,0,48,50,98,0,5,5,4,0
#0,LUCKNOW,JHS PAHADPUR PAHARPUR LUCKNOW,80.9456553,27.0373786,0,139,121,260,3,7,10,5,0
#0,LUCKNOW,JHS SARSAWAN SARSAVA LUCKNOW,80.9953952,26.8070719,0,130,0,130,2,6,8,3,0
#0,LUCKNOW,JHS RAISINGHPUR ATARAURA LUCKNOW,83.0455351,26.1174741,0,24,31,55,2,3,5,3,0
#0,LUCKNOW,KANYA KRM PAHARPUR PAHARPUR LUCKNOW,80.3575128,25.0261374,0,123,99,222,4,7,11,5,0
#0,LUCKNOW,JHS BASHA BASAHA LUCKNOW,80.9957405,26.9527008,0,0,130,130,0,6,6,3,0
#0,LUCKNOW,JHS BEHTA BEHTA LUCKNOW,81.0207605,26.9871546,0,71,79,150,3,6,9,4,0
#0,LUCKNOW,JHS KAPASI KAPASI LUCKNOW,80.9453043,26.9038998,0,66,76,142,1,8,9,5,0
#0,LUCKNOW,JHS PAIKRAMAU PAIKARAMAU LUCKNOW,80.855233,26.8995862,0,39,33,72,0,5,5,5,0
#0,LUCKNOW,JHS RAJAULI RAJAULI LUCKNOW,81.0395821,26.9617028,0,109,84,193,0,5,5,4,0
#0,LUCKNOW,JHS RASOOLPUR SADAT RASOOLPUR SADAT LUCKNOW,81.0134759,26.9009067,0,71,72,143,2,4,6,4,0
#0,LUCKNOW,JHSGOILA GOILA LUCKNOW,81.0402337,26.9201777,0,79,69,148,2,7,9,7,0
#0,LUCKNOW,JHS ETAUNJA ETAUNJA LUCKNOW,80.9453043,26.9038998,0,84,84,168,1,9,10,3,0
#0,LUCKNOW,JHS KANYA ETAUNJA ETAUNJA LUCKNOW,80.3575128,25.0261374,0,119,0,119,1,12,13,13,0
#0,LUCKNOW,JHS MAHONA MAHONA LUCKNOW,80.855233,26.8995862,0,0,193,193,0,10,10,4,0
#0,LUCKNOW,JHS MADHAVAPUR MADHAVAPUR LUCKNOW,80.9453043,26.9038998,0,92,13,105,2,5,7,3,0
#0,LUCKNOW,JHS RAIPUR RAJA RAIPUR RAJA LUCKNOW,80.8833908,27.0725477,0,83,102,185,1,3,4,4,0
#0,LUCKNOW,KANYA KRM MAHONA MAHONA LUCKNOW,80.3575128,25.0261374,0,38,27,65,1,4,5,3,0
#0,LUCKNOW,UPS KHERIYA KHERIYA LUCKNOW,80.8905,26.781275,0,0,89,89,0,7,7,4,0
#0,LUCKNOW,JHS KALYANPUR KALYANPUR LUCKNOW,80.9704818,26.9065592,0,19,16,35,0,3,3,4,0
#0,LUCKNOW,JHS USARNA USARANA LUCKNOW,80.9345978,27.0774984,0,55,50,105,0,9,9,4,0
#0,LUCKNOW,JHS PRITHVI NAGAR PIRTHI NAGAR LUCKNOW,80.9235387,26.9834389,0,109,107,216,4,6,10,5,2
#0,LUCKNOW,JHS ALLUNAGAR DIGURIA ALLUNAGER DIGURIA LUCKNOW,80.8905092,26.9232192,0,44,29,73,0,6,6,4,0
#0,LUCKNOW,JHS GHAILA GHAILA LUCKNOW,80.8905092,26.9232192,0,27,49,76,3,4,7,6,0
#0,LUCKNOW,JHS NARHARPUR NARHARPUR LUCKNOW,80.855233,26.8995862,0,25,22,47,2,3,5,0,0
#0,LUCKNOW,JHS PALHARI PALHARI LUCKNOW,81.0403383,26.8773684,0,84,73,157,0,4,4,4,0
#0,LUCKNOW,JHS BORUMAU BORUMAU LUCKNOW,80.8599193,26.9647279,0,6,20,26,1,3,4,4,0
#0,LUCKNOW,JHS DHATINGARA DHATINGARA LUCKNOW,80.946166,26.8466937,0,59,63,122,2,4,6,0,0
#0,LUCKNOW,JHS DUGGAUR DUGGOR LUCKNOW,80.95118,26.87299,0,52,56,108,3,4,7,0,0
#0,LUCKNOW,JHS RAITHA RAITHA LUCKNOW,80.8460822,26.990083,0,59,47,106,3,5,8,0,0
#0,LUCKNOW,JHS MIRZAPUR MIRZAPUR LUCKNOW,78.5684594,25.4484257,0,94,102,196,2,7,9,3,0
#0,LUCKNOW,JHS GANESHPUR GANESHPUR RAHMANPUR LUCKNOW,81.0470344,26.898738,0,33,37,70,1,4,5,0,0
#0,LUCKNOW,JHS PAPNAMAU PAPNAMAU LUCKNOW,81.0356724,26.8528143,0,11,24,35,3,9,12,5,2
#0,LUCKNOW,JHS UTTARDHAUNA UTTARDHAUNA LUCKNOW,81.0648758,26.8912141,0,45,70,115,0,4,4,0,0
#0,LUCKNOW,JHS NAUBASTA KALA NAUBASTAKALA LUCKNOW,81.0134759,26.9009067,0,54,46,100,0,3,3,3,0
#0,LUCKNOW,JHS JUGGAUR JUGGAUR LUCKNOW,81.0953494,26.8895057,0,64,62,126,1,6,7,0,0
#0,LUCKNOW,JHS MEHAURA MEHAURA LUCKNOW,80.9453043,26.9038998,0,78,72,150,0,4,4,0,0
#0,LUCKNOW,JHS SALARGANJ SALARGANJ LUCKNOW,80.855233,26.8995862,0,101,112,213,1,12,13,8,0
#0,LUCKNOW,JHS SARAI SHAIKH SARAISHEKH LUCKNOW,81.0520052,26.8676172,0,27,35,62,0,3,3,0,0
#0,LUCKNOW,JHS SEMRA SEMRA LUCKNOW,81.0515837,26.8867581,0,123,136,259,0,4,4,0,0
#0,LUCKNOW,JHS DAYARAM PURWA DAYARAM PURWA LUCKNOW,81.0761485,26.8847587,0,111,112,223,1,7,8,0,0
#0,LUCKNOW,JHS KHARGAPUR MAKDOOMPUR LUCKNOW,81.0129169,26.8399648,0,91,85,176,0,6,6,0,0
#0,LUCKNOW,JHS LONAPUR LONAPUR LUCKNOW,81.056891,26.8214337,0,72,74,146,0,3,3,4,0
#0,LUCKNOW,JHS MALESEMAU MALESEMAU LUCKNOW,81.0150979,26.8285852,0,62,51,113,0,8,8,0,0
#0,LUCKNOW,JHS DEWARIA DEWARIA LUCKNOW,80.9453043,26.9038998,0,77,111,188,1,7,8,5,0
#0,LUCKNOW,JHS HANSEMAU HANSEMAU LUCKNOW,81.0492446,26.8440815,0,74,84,158,0,9,9,6,0
#0,LUCKNOW,JHS LAULAI LAULAI LUCKNOW,81.059959,26.848626,0,62,101,163,0,6,6,6,0
#0,LUCKNOW,KANYA JHS MALHAUR MALLAHUR LUCKNOW,80.3575128,25.0261374,0,122,121,243,1,6,7,4,0
#0,LUCKNOW,JHS PURABGAON PURABGAON LUCKNOW,80.9453043,26.9038998,0,35,47,82,1,8,9,0,0
#0,LUCKNOW,JHS SARORA SARORA LUCKNOW,80.8723705,26.9378181,0,85,75,160,0,6,6,0,0
#0,LUCKNOW,JHS MADHARMAU MADHARMAU LUCKNOW,82.9723336,26.4582764,0,114,111,225,1,6,7,0,2
#0,LUCKNOW,JHS MALOOKPUR MALOOKPUR LUCKNOW,80.942153,26.896218,0,75,87,162,1,3,4,4,0
#0,LUCKNOW,JHS MASTEMAU MASTEMAU LUCKNOW,81.0285377,26.809182,0,60,69,129,2,4,6,6,0
#0,LUCKNOW,JHS ADAMPUR NAUBASTA ADAMPUR NAUBASTA LUCKNOW,81.2023063,26.706155,0,59,65,124,2,7,9,3,0
#0,LUCKNOW,JHS BEHRAULI BAHRAULI LUCKNOW,80.855233,26.8995862,0,45,62,107,1,6,7,4,0
#0,LUCKNOW,JHS GHORSARA GHORSARA LUCKNOW,80.9453043,26.9038998,0,38,53,91,3,4,7,6,0
#0,LUCKNOW,JHS ANEYA KHARGAPUR ANEYA KHARGAPUR LUCKNOW,81.166481,26.6542331,0,39,62,101,2,5,7,4,0
#0,LUCKNOW,JHS HUSAINABAD HUSAINABAD LUCKNOW,80.8903524,26.8762367,0,65,68,133,1,3,4,3,0
#0,LUCKNOW,JHS GODAULI SARAI GODAULI LUCKNOW,80.95118,26.87299,0,36,42,78,2,1,3,4,0
#0,LUCKNOW,JHS KAPERA MADARPUR KAPERA MADARPUR LUCKNOW,81.1278814,26.7044336,0,104,88,192,1,8,9,3,0
#0,LUCKNOW,JHS KEWALI KEWALI LUCKNOW,80.9449644,26.766611,0,22,20,42,2,0,2,3,0
#0,LUCKNOW,JHS MAHURA KALA MAHURA KALA LUCKNOW,80.95118,26.87299,0,51,69,120,3,2,5,6,0
#0,LUCKNOW,JHS BAGHAULI BADHAULI LUCKNOW,80.95118,26.87299,0,26,37,63,2,1,3,5,0
#0,LUCKNOW,JHS SALAULI SALAIULI LUCKNOW,81.0837442,26.795154,0,85,108,193,2,5,7,5,0
#0,LUCKNOW,JHS MAHMOODPUR MAHAMOODPUR LUCKNOW,81.0934013,26.8205913,0,18,30,48,2,1,3,5,0
#0,LUCKNOW,JHS MEESA MEESA LUCKNOW,80.95118,26.87299,0,21,24,45,2,2,4,5,0
#0,LUCKNOW,JHS NOORPUR BEHTA NOORPUR BEHTA LUCKNOW,80.95118,26.87299,0,76,74,150,3,3,6,5,0
#0,LUCKNOW,JHS SUREYAMAU SUREYA MAU LUCKNOW,81.1223656,26.8267974,0,60,42,102,3,1,4,4,0
#0,LUCKNOW,JHS BASTIYA BASTIYA LUCKNOW,81.0134759,26.9009067,0,165,143,308,5,3,8,4,0
#0,LUCKNOW,JHS JAUKHANDI JAKHNADI LUCKNOW,80.95118,26.87299,0,90,51,141,4,5,9,4,0
#0,LUCKNOW,JHS HASNAPUR HASNAPUR LUCKNOW,80.9123205,26.8107562,0,64,57,121,2,5,7,5,0
#0,LUCKNOW,JHS AMETHI AMETHI LUCKNOW,81.8061271,26.1529647,0,49,56,105,3,3,6,4,0
#0,LUCKNOW,JHS CHAMAR TALIYA CHAMATALIYA LUCKNOW,81.1678592,26.763918,0,26,28,54,3,1,4,4,0
#0,LUCKNOW,JHS DHAURAHRA DHAURAHRA LUCKNOW,81.0354406,27.3565321,0,29,29,58,4,1,5,5,0
#0,LUCKNOW,JHS GHUSKAR GHUSKAR LUCKNOW,81.1940403,26.7728562,0,31,34,65,1,2,3,5,0
#0,LUCKNOW,KANYA JHS AMETHI AMETHI LUCKNOW,80.3575128,25.0261374,0,59,57,116,3,2,5,4,0
#0,LUCKNOW,JHS MUAZZAM NAGAR MUAZZAM NAGAR LUCKNOW,81.0211833,26.8832647,0,27,26,53,2,2,4,4,0
#0,LUCKNOW,JHS PAHAR NAGAR PAHAR NAGAR TIKARIYA LUCKNOW,81.0506249,26.7696909,0,34,34,68,2,1,3,5,0
#0,LUCKNOW,JHS SIKANDARPUR AMAULIYA SIKANDARPUR AMAULIYA LUCKNOW,81.0395821,26.7573062,0,64,56,120,4,3,7,5,0
#0,LUCKNOW,JHS GOMI KHERA GOMI KHERA LUCKNOW,81.1623462,26.7197406,0,34,30,64,0,4,4,5,0
#0,LUCKNOW,JHS RAHMAT NAGAR RAHMAT NAGAR LUCKNOW,81.1719936,26.7422607,0,36,54,90,0,8,8,3,0
#0,LUCKNOW,JHS SALEMPUR SALEMPUR LUCKNOW,80.8326555,26.8467463,0,71,53,124,3,7,10,5,0
#0,LUCKNOW,JHS JALLAUNDI NAGAR JALLAUNDI NAGAR LUCKNOW,80.855233,26.8995862,0,57,49,106,3,4,7,4,0
#0,LUCKNOW,JHS ECHWALIYA ECHWALIYA LUCKNOW,80.855233,26.8995862,0,37,30,67,1,3,4,4,0
#0,LUCKNOW,JHS RATEYAMAU RATEYA MAU LUCKNOW,81.1058159,26.7381149,0,62,78,140,0,7,7,7,0
#0,LUCKNOW,JHS SHIVLAR SHIVLAR LUCKNOW,81.092582,26.7588526,0,56,72,128,0,4,4,4,0
#0,LUCKNOW,JHS BELI BELI LUCKNOW,80.95118,26.87299,0,34,47,81,1,3,4,4,0
#0,LUCKNOW,KANYA JHS GOSHAI GANJ SHIVLAR LUCKNOW,80.3575128,25.0261374,0,43,55,98,2,3,5,3,0
#0,LUCKNOW,JHS BHATTI BARKAT NAGAR BHATTI BARKAT NAGAR LUCKNOW,81.0671863,26.6947725,0,56,51,107,3,1,4,4,0
#0,LUCKNOW,JHS BHAURA KHURD BHAURA KHURD LUCKNOW,81.0947808,26.6789756,0,79,78,157,1,9,10,6,0
#0,LUCKNOW,JHS MOHARI KHURD MOHARI KHURD LUCKNOW,81.0395821,26.7280913,0,60,58,118,3,4,7,4,0
#0,LUCKNOW,JHS SITHAULI KHURD SITHAULI KHURD LUCKNOW,81.0724898,26.7177737,0,31,134,165,1,10,11,3,0
#0,LUCKNOW,JHS BEGARIYA MAU BEGARIYA LUCKNOW,80.95118,26.87299,0,62,51,113,3,2,5,4,1
#0,LUCKNOW,JHS KANYA TIKANIYAMAU TIKANIYAMAU LUCKNOW,80.95118,26.87299,0,25,30,55,0,2,2,3,0
#0,LUCKNOW,JHS NIZAMPUR NIZAMPUR LUCKNOW,81.1278814,26.7862482,0,26,29,55,1,3,4,3,0
#0,LUCKNOW,JHS ALYAMAU ALIYA MAU LUCKNOW,81.1265025,26.8168342,0,84,82,166,4,3,7,5,0
#0,LUCKNOW,JHS KAZEE KHERA KAZEE KHERA LUCKNOW,80.95118,26.87299,0,30,23,53,0,4,4,4,0
#0,LUCKNOW,JHS AMETHIYA SALEMPUR AMETHIYA SALEMPUR LUCKNOW,80.8139746,26.8809687,0,45,47,92,1,3,4,5,0
#0,LUCKNOW,JHS HALUWAPUR HALUWAPUR LUCKNOW,80.9453043,26.9038998,0,48,73,121,1,5,6,4,0
#0,LUCKNOW,JHS KAKORI WARD 03 LUCKNOW,80.785171,26.8693966,0,22,31,53,2,3,5,4,0
#0,LUCKNOW,JHS MAHIPATMAU MAHIPATMAU LUCKNOW,80.8380214,26.8804473,0,15,17,32,2,2,4,4,0
#0,LUCKNOW,JHS PAHIYA AZAMPUR PAHIYA AJAMPUR LUCKNOW,80.95118,26.87299,0,76,59,135,0,6,6,5,0
#0,LUCKNOW,JHS BARAGAON BARA GAON LUCKNOW,82.81828,25.4252542,0,45,55,100,0,7,7,3,0
#0,LUCKNOW,JHS GOHRAMAU GOHRAMAU LUCKNOW,80.9453043,26.9038998,0,0,146,146,0,10,10,6,0
#0,LUCKNOW,JHS BEHRU BEHRU LUCKNOW,80.855233,26.8995862,0,52,50,102,1,6,7,5,0
#0,LUCKNOW,JHS GOSALALPUR GOSALALPUR LUCKNOW,80.9453043,26.9038998,0,23,29,52,0,4,4,4,0
#0,LUCKNOW,JHS SAIFALPUR SAIFALPUR LUCKNOW,80.9453043,26.9038998,0,59,36,95,0,5,5,5,0
#0,LUCKNOW,JHS SARAI ALIPUR SARAI ALIPUR LUCKNOW,80.7172837,26.889742,0,18,10,28,0,4,4,4,0
#0,LUCKNOW,J.H.S.JALIYAMAU JALIYAMAU LUCKNOW,80.855233,26.8995862,0,94,96,190,1,4,5,3,0
#0,LUCKNOW,J.H.S.SHAHPUR SHAHPUR LUCKNOW,80.855233,26.8995862,0,41,39,80,1,4,5,4,0
#0,LUCKNOW,JHS BHALIYA BHALIYA LUCKNOW,80.855233,26.8995862,0,15,18,33,1,3,4,4,0
#0,LUCKNOW,JHS DONA DONA LUCKNOW,80.946166,26.8466937,0,19,17,36,0,3,3,3,0
#0,LUCKNOW,J.H.S.BANSIGHADI BANSHIGARHI LUCKNOW,80.855233,26.8995862,0,50,42,92,2,3,5,3,0
#0,LUCKNOW,JHS GOPRAMAU GOPRAMAU LUCKNOW,80.855233,26.8995862,0,18,19,37,0,4,4,3,0
#0,LUCKNOW,JHS SARSANDA SARSANDA LUCKNOW,80.9453043,26.9038998,0,41,41,82,3,6,9,6,0
#0,LUCKNOW,JHS BHAROSA SAROSA-BHAROSA LUCKNOW,80.829506,26.8255836,0,41,45,86,1,5,6,4,0
#0,LUCKNOW,JHS KHUSHAL GANJ KHUSHAL GANJ LUCKNOW,80.8031723,26.828251,0,17,14,31,2,1,3,5,0
#0,LUCKNOW,JHS SHIVRI SHIVRI LUCKNOW,80.855233,26.8995862,0,63,51,114,0,5,5,3,0
#0,LUCKNOW,JHS HARDOIYA LAL NAGAR HARDOIYA LAL NAGAR LUCKNOW,80.7962492,26.8059059,0,57,52,109,4,3,7,5,0
#0,LUCKNOW,JHS JEHTA JEHTA LUCKNOW,80.8394834,26.9195552,0,84,72,156,1,4,5,4,0
#0,LUCKNOW,JHS SAITHA SAITHA LUCKNOW,80.946166,26.8466937,0,38,18,56,1,4,5,5,0
#0,LUCKNOW,JHS SARAI PREMRAJ SARAI PREM RAJ LUCKNOW,80.8266075,26.8953424,0,68,86,154,1,7,8,4,0
#0,LUCKNOW,J.H.S.SAIDPUR MAHERI SAIDPUR MAHERI LUCKNOW,80.95118,26.87299,0,68,86,154,0,8,8,4,0
#0,LUCKNOW,JHS DASHARI DASHARI LUCKNOW,80.95118,26.87299,0,19,18,37,0,3,3,4,0
#0,LUCKNOW,JHS SALEMPUR PATAURA SALEMPUR PATAURA LUCKNOW,80.8326555,26.8467463,0,89,80,169,2,10,12,5,0
#0,LUCKNOW,JHS MUZAFFARNAGAR MUZAFFAR NAGAR LUCKNOW,77.7085091,29.4726817,0,27,28,55,1,3,4,4,0
#0,LUCKNOW,JHS INTGAON KUDHA ENTGAON LUCKNOW,80.855233,26.8995862,0,40,30,70,3,2,5,3,0
#0,LUCKNOW,JHS KATHINGARA KATHINGARA LUCKNOW,80.9453043,26.9038998,0,49,53,102,1,4,5,3,0
#0,LUCKNOW,JHS SAKRA SAKRA LUCKNOW,80.855233,26.8995862,0,64,62,126,0,7,7,4,0
#0,LUCKNOW,JHS SIRGAMAU SIRGAMAU LUCKNOW,80.855233,26.8995862,0,73,80,153,2,5,7,5,0
#0,LUCKNOW,JHS THAWAR THAWAR LUCKNOW,80.946166,26.8466937,0,60,42,102,2,4,6,3,0
#0,LUCKNOW,JHS BHITAURA BHITAURA LUCKNOW,80.9453043,26.9038998,0,58,75,133,0,10,10,8,0
#0,LUCKNOW,JHS NARAYANPUR NARAYANPUR LUCKNOW,80.795907,26.778645,0,75,66,141,2,3,5,3,0
#0,LUCKNOW,JHS PEER NAGAR PEER NAGAR LUCKNOW,80.8601321,26.8924856,0,41,44,85,2,5,7,3,0
#0,LUCKNOW,JHS RANIPARA RANI PARA LUCKNOW,80.95118,26.87299,0,104,144,248,3,2,5,5,0
#0,LUCKNOW,JHS AUNTGARHI SAURA AUNTGARHI SAURA LUCKNOW,80.7297571,27.0815935,0,57,77,134,3,4,7,5,0
#0,LUCKNOW,JHS KANYA KRM AUNTGARHI SAURA AUNTGARHI SAURA LUCKNOW,80.3575128,25.0261374,0,14,7,21,2,0,2,4,0
#0,LUCKNOW,JHS ATARI ATARI LUCKNOW,80.95118,26.87299,0,27,30,57,2,2,4,4,0
#0,LUCKNOW,JHS AUAMAU AUAMAU LUCKNOW,80.855233,26.8995862,0,22,21,43,1,3,4,3,0
#0,LUCKNOW,JHS DALTHAMBA AUAMAU LUCKNOW,80.855233,26.8995862,0,26,23,49,1,2,3,3,0
#0,LUCKNOW,JHS KOLWA KOLVA BHANAURA LUCKNOW,80.8249762,27.0102178,0,96,0,96,4,2,6,3,0
#0,LUCKNOW,JHS PATAUNA PATAUNA LUCKNOW,80.9453043,26.9038998,0,0,105,105,3,2,5,3,0
#0,LUCKNOW,JHS SARTHARA SARTHRA LUCKNOW,80.785171,26.9861004,0,50,46,96,3,0,3,3,0
#0,LUCKNOW,JHS BADAIYA BADIYAN LUCKNOW,80.855233,26.8995862,0,56,71,127,3,0,3,3,0
#0,LUCKNOW,JHS BAHRAURA BAHRAURA LUCKNOW,80.8817705,26.8704151,0,26,18,44,3,0,3,3,0
#0,LUCKNOW,JHS CHANDWARA CHANDWARA LUCKNOW,80.855233,26.8995862,0,32,27,59,2,0,2,1,0
#0,LUCKNOW,JHS MALL MALL LUCKNOW,80.976271,26.85765,0,15,18,33,1,3,4,4,0
#0,LUCKNOW,JHS MASEEDHA HAMIR MALL LUCKNOW,80.95118,26.87299,0,41,71,112,4,0,4,4,0
#0,LUCKNOW,KANYA JHS MALL MALL LUCKNOW,80.976271,26.85765,0,62,99,161,5,0,5,5,0
#0,LUCKNOW,JHS BASHARI BASHARI LUCKNOW,80.855233,26.8995862,0,13,38,51,2,2,4,4,0
#0,LUCKNOW,JHS BAZAR GAON PAKARA LUCKNOW,80.95118,26.87299,0,17,23,40,2,0,2,2,0
#0,LUCKNOW,JHS MADWANA MADWANA LUCKNOW,80.8156324,27.0435104,0,128,0,128,2,1,3,1,0
#0,LUCKNOW,JHS MANZHI MANZHI NIKROJPUR LUCKNOW,83.8414297,25.5582276,0,8,21,29,1,1,2,5,0
#0,LUCKNOW,JHS SAIDAPUR SAIDAPUR LUCKNOW,80.855233,26.8995862,0,0,98,98,1,6,7,3,0
#0,LUCKNOW,JHS SHAHPUR GORAVA SHAHPURGORAVA LUCKNOW,80.95118,26.87299,0,21,14,35,2,0,2,2,0
#0,LUCKNOW,JHS HASNAPUR HASNAPUR LUCKNOW,80.9123205,26.8107562,0,54,56,110,2,1,3,4,0
#0,LUCKNOW,JHS NABIPANAH NABI PANAH LUCKNOW,80.9453043,26.9038998,0,88,83,171,2,2,4,3,0
#0,LUCKNOW,JHS RAMNAGAR DHAKHWA RAM NAGAR LUCKNOW,80.8965758,26.8102235,0,41,34,75,3,2,5,3,0
#0,LUCKNOW,KANYA KRM NAVIPANAH NABI PANAH LUCKNOW,80.3575128,25.0261374,0,12,14,26,1,1,2,4,0
#0,LUCKNOW,J.H.S.BAGWARA BAGWARA LUCKNOW,80.95118,26.87299,0,33,37,70,2,0,2,3,0
#0,LUCKNOW,JHS GORWA BARAUKI GORVA BARAUKI LUCKNOW,80.855233,26.8995862,0,60,53,113,2,1,3,3,0
#0,LUCKNOW,JHS LODHAI LODHAI LUCKNOW,80.965693,26.922683,0,68,0,68,0,4,4,2,0
#0,LUCKNOW,JHS SASPAN SASPAN LUCKNOW,80.9453043,26.9038998,0,20,31,51,1,3,4,4,0
#0,LUCKNOW,JHS ANTA KHERA ANTA KHERA LUCKNOW,80.946166,26.8466937,0,0,80,80,0,5,5,3,0
#0,LUCKNOW,JHS TILAN TILAN LUCKNOW,80.95118,26.87299,0,53,47,100,1,1,2,3,0
#0,LUCKNOW,KRM KANYA SASPAN SASPAN LUCKNOW,80.3575128,25.0261374,0,81,66,147,2,1,3,3,0
#0,LUCKNOW,JHS BASANTPUR BASANTPUR LUCKNOW,80.9453043,26.9038998,0,37,50,87,1,0,1,3,0
#0,LUCKNOW,JHS MUNNU KHEDA MUNNU KHEDA LUCKNOW,80.8581898,26.8234346,0,38,35,73,4,0,4,4,0
#0,LUCKNOW,JHS SANKERPUR SHANKARPUR LUCKNOW,81.0134759,26.9009067,0,23,9,32,3,1,4,2,0
#0,LUCKNOW,JHS SISWARA SISWARA LUCKNOW,80.9453043,26.9038998,0,37,24,61,2,1,3,4,0
#0,LUCKNOW,JHS UMRAWAL UMRAWAL LUCKNOW,80.9453043,26.9038998,0,24,32,56,2,1,3,3,0
#0,LUCKNOW,JHS AHIDAR AHINDAR LUCKNOW,80.855233,26.8995862,0,0,30,30,1,0,1,2,0
#0,LUCKNOW,JHSRAHTA RAHTA LUCKNOW,80.6562753,27.0402742,0,93,95,188,3,2,5,4,0
#0,LUCKNOW,JHS MURIYARA MURIYARA LUCKNOW,78.5534647,25.4443599,0,31,27,58,1,2,3,4,0
#0,LUCKNOW,JHS AANT AANT LUCKNOW,80.95118,26.87299,0,40,41,81,3,1,4,3,0
#0,LUCKNOW,JHS GAHNDO GAHNDO LUCKNOW,80.958,26.87436,0,50,56,106,4,0,4,3,0
#0,LUCKNOW,JHS THARI THARI LUCKNOW,80.6937177,27.0121488,0,45,49,94,3,0,3,4,1
#0,LUCKNOW,KANYA JHS KHANDSARA KHNADSARA LUCKNOW,80.3575128,25.0261374,0,19,27,46,2,0,2,3,0
#0,LUCKNOW,JHS BAKTIYAR NAGAR BAKHTIYAR NAGAR LUCKNOW,80.7061947,26.9006808,0,54,73,127,3,1,4,3,0
#0,LUCKNOW,JHS PURWA PURVA LUCKNOW,81.0043088,26.8640158,0,43,30,73,2,2,4,4,0
#0,LUCKNOW,JHS TILSUA TILSUA LUCKNOW,80.95118,26.87299,0,78,87,165,3,0,3,4,0
#0,LUCKNOW,JHS BELGARHA BELGARHA LUCKNOW,80.7228277,26.8959428,0,79,76,155,1,3,4,4,0
#0,LUCKNOW,JHS DATLI DATLI LUCKNOW,80.942153,26.896218,0,25,35,60,4,0,4,4,0
#0,LUCKNOW,JHS DHEREMAU DHEREMAU LUCKNOW,80.6798521,26.8858104,0,34,37,71,1,1,2,2,0
#0,LUCKNOW,JHS MAHDOIA MAHDOIA LUCKNOW,80.641016,26.8949034,0,95,115,210,8,0,8,6,0
#0,LUCKNOW,JHS NAVINAGAR NAVI NAGAR LUCKNOW,84.1274624,24.6067913,0,47,46,93,0,4,4,3,0
#0,LUCKNOW,JHS VIRAHIMPUR VIRAHIMPUR LUCKNOW,80.855233,26.8995862,0,42,34,76,2,2,4,3,0
#0,LUCKNOW,JHS AHEMDABAD KATAULI KATAULI LUCKNOW,80.6632103,26.9372159,0,31,20,51,2,3,5,0,0
#0,LUCKNOW,JHS MADHOPUR MADHOPUR LUCKNOW,80.855233,26.8995862,0,32,49,81,3,1,4,4,0
#0,LUCKNOW,JHS GARHI SANJAR KHAN GARHI SANJAR KHAN LUCKNOW,80.6951041,26.9203693,0,41,25,66,3,1,4,3,0
#0,LUCKNOW,JHS GAUNDA MAUZZAM NAGAR GAUNDA MUAJJAM NAGAR LUCKNOW,80.6239415,26.935806,0,48,65,113,1,3,4,5,0
#0,LUCKNOW,JHS RASULABAD RASULABAD LUCKNOW,80.9453043,26.9038998,0,40,37,77,2,5,7,4,0
#0,LUCKNOW,JHS BHADESARMAU BHADESARMAU LUCKNOW,80.9453043,26.9038998,0,44,41,85,2,2,4,2,0
#0,LUCKNOW,JHS DILAWAR NAGAR DILAWAR NAGAR LUCKNOW,80.7074076,26.9166243,0,26,28,54,2,2,4,0,0
#0,LUCKNOW,JHS KAHLA KAHALA LUCKNOW,80.855233,26.8995862,0,51,44,95,0,3,3,3,0
#0,LUCKNOW,JHS SENDHARWA SENDHARVA LUCKNOW,80.855233,26.8995862,0,33,26,59,0,4,4,4,0
#0,LUCKNOW,JHS BAHELIYA BAHELIYA LUCKNOW,80.7907103,26.9339543,0,65,47,112,2,5,7,3,0
#0,LUCKNOW,JHS BANIYA KHEDA BANIYA KHERA LUCKNOW,80.95118,26.87299,0,43,52,95,2,3,5,4,0
#0,LUCKNOW,JHS FATEHNAGAR FATEH NAGAR LUCKNOW,80.7907103,26.9222838,0,47,42,89,0,4,4,3,0
#0,LUCKNOW,JHS KASMANDI KALA KASMANDI KALA LUCKNOW,80.7685508,26.9325017,0,31,29,60,2,2,4,4,0
#0,LUCKNOW,JHS MALHA MALHA LUCKNOW,80.855233,26.8995862,0,76,78,154,4,6,10,4,0
#0,LUCKNOW,JHS RAMGARHA RAMGARHA LUCKNOW,80.7727061,26.9488198,0,46,44,90,5,2,7,3,0
#0,LUCKNOW,JHS BHADWANA BHADWANA LUCKNOW,80.9453043,26.9038998,0,132,136,268,10,3,13,2,0
#0,LUCKNOW,JHS HAMIRAPUR HAMIRAPUR LUCKNOW,80.9453043,26.9038998,0,25,27,52,5,1,6,3,0
#0,LUCKNOW,JHS KASMANDI KHURD KASMANDI KHURD LUCKNOW,80.7119325,26.9604385,0,36,29,65,2,3,5,4,0
#0,LUCKNOW,JHS SHIVPURI SHIVPURI LUCKNOW,77.665066,25.4357869,0,19,23,42,4,2,6,3,0
#0,LUCKNOW,KANYA JHS AMANIGANJ AMANIGANJ LUCKNOW,80.3575128,25.0261374,0,97,111,208,8,8,16,4,0
#0,LUCKNOW,JHS MALIHABAD TOWN MALIHABAD LUCKNOW,80.6939324,26.8908792,0,61,69,130,4,3,7,3,0
#0,LUCKNOW,JHS MUJASA MUJASA LUCKNOW,80.95118,26.87299,0,83,85,168,2,1,3,4,0
#0,LUCKNOW,JHS MEHMOODNAGAR MAHMOOD NAGAR LUCKNOW,80.707581,26.916818,0,33,36,69,3,2,5,2,0
#0,LUCKNOW,JHSKANAR KANAR LUCKNOW,80.7463852,26.8960344,0,47,42,89,3,1,4,4,0
#0,LUCKNOW,KANYA KRM MIRJA GANJ MALIHABA TOWN MALIHABAD LUCKNOW,80.707581,26.916818,0,54,48,102,3,1,4,4,0
#0,LUCKNOW,JHS BUDHARIYA BUDHARIYA LUCKNOW,80.855233,26.8995862,0,19,12,31,1,3,4,4,0
#0,LUCKNOW,JHS KHALISPUR KHALISPUR LUCKNOW,83.0455351,25.3404056,0,0,154,154,4,5,9,4,0
#0,LUCKNOW,KANYA KRM MANDAULI MANDAULI LUCKNOW,80.3575128,25.0261374,0,52,55,107,2,5,7,3,0
#0,LUCKNOW,JHS JAURIA JAURIA LUCKNOW,81.010272,26.851887,0,112,98,210,3,7,10,5,0
#0,LUCKNOW,JHS KAITHULIYA KAITHULIYA LUCKNOW,80.855233,26.8995862,0,45,42,87,0,5,5,7,0
#0,LUCKNOW,JHS RUSAINA RUSAINA LUCKNOW,80.95118,26.87299,0,71,69,140,3,4,7,0,0
#0,LUCKNOW,JHS SAHIJANA SAHIJANA LUCKNOW,80.855233,26.8995862,0,43,42,85,2,5,7,3,0
#0,LUCKNOW,JHS MAVAI KALAN MAVAI KALAN LUCKNOW,80.5850826,26.9559556,0,32,34,66,1,4,5,4,0
#0,LUCKNOW,JHS DAULATPUR DAULATPUR LUCKNOW,80.946166,26.8466937,0,40,42,82,6,2,8,0,0
#0,LUCKNOW,JHS MANKAUTI MANKAUTI LUCKNOW,80.6313041,26.9627996,0,42,48,90,1,4,5,3,0
#0,LUCKNOW,JHS RAHIMABAD JINDAUR LUCKNOW,80.8827451,26.7494681,0,25,32,57,2,1,3,2,0
#0,LUCKNOW,JHS TIRGAVAN TIRGAVAN LUCKNOW,80.855233,26.8995862,0,51,62,113,2,3,5,4,0
#0,LUCKNOW,JHS BHADESHWA BHADESHWA LUCKNOW,80.95118,26.87299,0,77,83,160,3,5,8,4,0
#0,LUCKNOW,JHS DEHWA DEHWA LUCKNOW,80.96303,26.672128,0,26,26,52,5,2,7,4,0
#0,LUCKNOW,JHS DHANUWA SAND DHANUWA SAND LUCKNOW,80.8958843,26.648802,0,51,44,95,4,0,4,5,0
#0,LUCKNOW,JHS KHAREHNA KHAREHNA LUCKNOW,80.9843446,26.6895221,0,25,22,47,2,2,4,4,0
#0,LUCKNOW,JHS KHUJHAULI KHUJAULI LUCKNOW,81.0340601,26.7102108,0,45,43,88,2,3,5,4,0
#0,LUCKNOW,JHS PAREHATA PAREHTA LUCKNOW,80.855233,26.8995862,0,75,53,128,3,2,5,4,0
#0,LUCKNOW,JHS SHIVDHARA SHIVDHARA LUCKNOW,80.9967764,26.7209913,0,55,45,100,6,3,9,3,0
#0,LUCKNOW,JHS BENIGANJ AKBARPUR BENI GANJ LUCKNOW,80.9802002,26.5591989,0,70,86,156,5,1,6,6,0
#0,LUCKNOW,JHS BHAJAN MAU BHAJAN MAU LUCKNOW,83.5562366,25.9431287,0,61,41,102,0,6,6,4,0
#0,LUCKNOW,JHS MADARI KHEDA MADARI KHERA LUCKNOW,81.0133491,26.5642232,0,116,100,216,9,6,15,9,0
#0,LUCKNOW,JHS MANGTEYA MANGTEYA LUCKNOW,80.95118,26.87299,0,34,24,58,0,3,3,4,0
#0,LUCKNOW,JHS RAGHUNATH KHERA RAGHUNATH KHERA LUCKNOW,81.0069046,26.5506388,0,124,121,245,3,8,11,4,0
#0,LUCKNOW,JHS DAYALPUR DAYALPUR LUCKNOW,77.9810028,28.9594495,0,66,71,137,3,4,7,3,0
#0,LUCKNOW,JHS BARVALIYA BARVALIYA LUCKNOW,80.9453043,26.9038998,0,71,89,160,5,3,8,4,0
#0,LUCKNOW,JHS GOBINDPUR GOBINDPUR LUCKNOW,80.965693,26.922683,0,51,56,107,1,5,6,3,0
#0,LUCKNOW,JHS JABRAULI JABRAULI LUCKNOW,80.9453043,26.9038998,0,19,19,38,2,1,3,4,0
#0,LUCKNOW,JHS KUSMAURA KUSHMAURA LUCKNOW,80.9677658,26.5891031,0,21,16,37,2,1,3,4,0
#0,LUCKNOW,JHS PARASPUR THATHTHA PARASPUR THATHTHA LUCKNOW,80.9788187,26.595652,0,21,30,51,1,3,4,3,0
#0,LUCKNOW,JHS BINDAUA BINDAUA LUCKNOW,80.855233,26.8995862,0,38,53,91,2,1,3,5,0
#0,LUCKNOW,JHS HULAS KHERA HULAS KHERA LUCKNOW,81.0302634,26.6394693,0,71,74,145,2,4,6,8,0
#0,LUCKNOW,JHS KUDHA KURA LUCKNOW,83.2547824,26.5190379,0,31,47,78,1,3,4,4,0
#0,LUCKNOW,JHS GADIYANA GADIYANA LUCKNOW,80.855233,26.8995862,0,45,38,83,3,1,4,4,0
#0,LUCKNOW,JHS GAURA GAURA LUCKNOW,80.855233,26.8995862,0,44,54,98,3,5,8,4,0
#0,LUCKNOW,JHS KANKAHA KANKAHA LUCKNOW,81.0202485,26.6315972,0,59,64,123,3,3,6,7,0
#0,LUCKNOW,JHS MASTIPUR MASTIPUR LUCKNOW,80.855233,26.8995862,0,44,51,95,2,1,3,5,0
#0,LUCKNOW,JHS GARHI KANKAHA GARHI LUCKNOW,80.95118,26.87299,0,68,54,122,2,4,6,6,0
#0,LUCKNOW,KANYA KRM KANKAHA KANKAHA LUCKNOW,80.3575128,25.0261374,0,73,74,147,3,6,9,4,1
#0,LUCKNOW,JHS BALSINGH KHERA BALSINGH KHERA LUCKNOW,81.1120224,26.6486371,0,98,99,197,3,7,10,4,3
#0,LUCKNOW,JHS DEWATI DEWATI LUCKNOW,80.95118,26.87299,0,22,38,60,2,1,3,3,0
#0,LUCKNOW,JHS KARORA KARORA LUCKNOW,80.9453043,26.9038998,0,54,44,98,4,2,6,4,0
#0,LUCKNOW,JHSMADARPUR MADARPUR LUCKNOW,81.0134759,26.9009067,0,88,95,183,3,9,12,4,0
#0,LUCKNOW,JHS MAU MAU LUCKNOW,83.5562366,25.9431287,0,96,0,96,3,5,8,5,0
#0,LUCKNOW,JHS PURSENI MAUU LUCKNOW,80.9449644,26.766611,0,102,86,188,2,9,11,5,0
#0,LUCKNOW,JHS RAIBHAN KHERA RAIBHAN KHERA LUCKNOW,80.95118,26.87299,0,98,80,178,2,6,8,5,3
#0,LUCKNOW,JHS KHUJEHTA KHUJEHRA LUCKNOW,81.0368211,26.6840871,0,0,126,126,2,4,6,3,0
#0,LUCKNOW,JHS NAGAR PURSENI PURSENI LUCKNOW,80.855233,26.8995862,0,40,38,78,3,2,5,4,0
#0,LUCKNOW,JHS HASANPUR KANERI KANERI LUCKNOW,81.1140601,26.5693489,0,75,92,167,3,4,7,1,0
#0,LUCKNOW,JHS MEERAKH NAGAR MEERAKH NAGAR LUCKNOW,80.8589076,26.7440783,0,99,128,227,5,5,10,11,2
#0,LUCKNOW,JHS SALEMPUR ACHAKA SALEMPUR ACHAKA LUCKNOW,81.1002985,26.5799306,0,76,95,171,3,2,5,5,0
#0,LUCKNOW,JHS GARHA GADHA LUCKNOW,80.855233,26.8995862,0,60,80,140,2,6,8,3,0
#0,LUCKNOW,JHS NABI NAGAR NABI NAGAR LUCKNOW,80.855233,26.8995862,0,51,46,97,2,5,7,5,0
#0,LUCKNOW,JHS NAGRAM NAGARAM GRAMEERA LUCKNOW,81.1402905,26.6189793,0,67,56,123,3,6,9,4,0
#0,LUCKNOW,KANYA JHS NAGRAM NAGARAM GRAMEERA LUCKNOW,80.3575128,25.0261374,0,40,41,81,1,2,3,5,0
#0,LUCKNOW,JHS LAWAL LAWAL LUCKNOW,81.0616662,26.5541136,0,39,44,83,2,4,6,4,0
#0,LUCKNOW,JHS NIGOHA NIGOHA LUCKNOW,81.0352,26.569,0,44,43,87,4,1,5,5,0
#0,LUCKNOW,JHS RAMPUR RAMPUR LUCKNOW,80.9453043,26.9038998,0,84,89,173,3,5,8,7,0
#0,LUCKNOW,JHS BHAWA KHEDA BHAWA KHERA LUCKNOW,81.027157,26.5738668,0,29,46,75,2,1,3,4,0
#0,LUCKNOW,JHS AGHAIYA AGHAIYA LUCKNOW,80.855233,26.8995862,0,31,27,58,3,4,7,3,0
#0,LUCKNOW,JHS DAKHENA SESHPUR DAKHENA SHESHPUR LUCKNOW,80.95118,26.87299,0,38,39,77,1,3,4,5,0
#0,LUCKNOW,JHS NATAULI NATAULI LUCKNOW,80.855233,26.8995862,0,64,52,116,1,5,6,5,0
#0,LUCKNOW,JHS PURAHEYA PURAHEYA LUCKNOW,80.9453043,26.9038998,0,47,0,47,1,3,4,5,0
#0,LUCKNOW,JHS AMLIHA KHEDA BHATPURA RATAN LUCKNOW,80.95118,26.87299,0,0,138,138,3,7,10,3,0
#0,LUCKNOW,JHS NANDAULI NANDAULI LUCKNOW,80.9453043,26.9038998,0,64,50,114,0,6,6,3,0
#0,LUCKNOW,JHS KAMALAPUR BICHLIKA KAMALPUR BICHLIKA LUCKNOW,80.8758289,26.9548202,0,72,90,162,2,7,9,8,0
#0,LUCKNOW,JHS SHAHMOHDPUR APAEYA SHAHMOHDPUR APAEYA LUCKNOW,80.855233,26.8995862,0,40,59,99,3,5,8,6,0
#0,LUCKNOW,JHS UTRAWAN UTRAWAN LUCKNOW,81.0478643,26.6029467,0,40,44,84,1,7,8,3,0
#0,LUCKNOW,JHS RAMBAXH KHERA RAM BAXH KHERA LUCKNOW,80.95118,26.87299,0,22,35,57,2,3,5,3,0
#0,LUCKNOW,KANYA KRM VID SAMESI SAMESI LUCKNOW,80.3575128,25.0261374,0,46,53,99,0,5,5,3,0
#0,LUCKNOW,JHS BHARSAWA BHARSAWA LUCKNOW,80.9453043,26.9038998,0,25,26,51,2,3,5,3,0
#0,LUCKNOW,JHS LALUMAR LALUMAR LUCKNOW,80.95118,26.87299,0,39,45,84,0,4,4,4,0
#0,LUCKNOW,KANYA JHS MEERANPUR MEERANPUR LUCKNOW,80.3575128,25.0261374,0,36,47,83,1,4,5,3,0
#0,LUCKNOW,KANYA KRM VID SISANDI SISANDI LUCKNOW,80.3575128,25.0261374,0,46,48,94,4,3,7,4,0
#0,LUCKNOW,JHS ALAMBAGH WARD LUCKNOW,80.9031077,26.8028948,0,113,100,213,3,5,8,6,0
#0,LUCKNOW,JHS KANYA BHADRUKH LKO WARD LUCKNOW,80.3575128,25.0261374,0,19,26,45,1,2,3,3,0
#0,LUCKNOW,JHS AMINABAD WARD 65 LUCKNOW,80.95118,26.87299,0,125,112,237,7,5,12,5,0
#0,LUCKNOW,JHS AMRAI GAON WARD 5 LUCKNOW,81.0223245,26.9131712,0,72,85,157,2,4,6,6,0
#0,LUCKNOW,JHS BARIGANWA WARD 67 LUCKNOW,80.946166,26.8466937,0,104,132,236,0,9,9,8,0
#0,LUCKNOW,JHS PEERNAGAR LKO WARD LUCKNOW,80.792095,27.4076133,0,49,55,104,2,4,6,3,0
#0,LUCKNOW,JHS BARAWAN KALA LKO WARD LUCKNOW,80.95118,26.87299,0,65,55,120,5,2,7,3,0
#0,LUCKNOW,JHS NEW GUDAURA LKO WARD LUCKNOW,80.855233,26.8995862,0,76,70,146,1,4,5,3,0
#0,LUCKNOW,JHS BHOOHAR LKO WARD LUCKNOW,80.855233,26.8995862,0,33,36,69,2,1,3,4,0
#0,LUCKNOW,JHS LALABAGH WARD 16 LUCKNOW,80.95118,26.87299,0,61,75,136,1,3,4,3,0
#0,LUCKNOW,JHS RAHIMABAD LKO WARD LUCKNOW,80.8827451,26.7494681,0,41,15,56,0,2,2,4,0
#0,LUCKNOW,JHS GAJIPUR BALRAM WARD 9 LUCKNOW,80.9136657,26.9067828,0,24,29,53,0,2,2,4,0
#0,LUCKNOW,JHS MADIYANW WARD 14 LUCKNOW,80.9525655,26.9313253,0,7,15,22,1,5,6,0,0
#0,LUCKNOW,JHS AMAUSI WARD 4 LUCKNOW,80.8840897,26.7673571,0,36,24,60,1,3,4,0,0
#0,LUCKNOW,JHS GAURI KANYA WARD 4 LUCKNOW,80.3575128,25.0261374,0,7,14,21,0,1,1,4,0
#0,LUCKNOW,JHS KILA MOHAMMED NAGAR WARD 3 LUCKNOW,80.95118,26.87299,0,27,13,40,1,0,1,3,0
#0,LUCKNOW,JHS AMBEDKAR NAGAR WARD 4 LUCKNOW,80.946166,26.8466937,0,1,9,10,1,1,2,4,0
#0,LUCKNOW,JHS ALI NAGAR SUNEHRA LKO WARD LUCKNOW,80.8740541,26.7779081,0,17,7,24,1,1,2,3,0
#0,LUCKNOW,JHS AURANGABAD WARD 3 LUCKNOW,80.855233,26.8995862,0,4,1,5,2,0,2,3,0
#0,LUCKNOW,JHS BARAULI KHALILABAD LKO WARD LUCKNOW,80.9777722,26.7649162,0,33,17,50,2,0,2,4,0
#0,LUCKNOW,JHS BEHSA WARD 2 LUCKNOW,80.8917353,26.7726809,0,18,28,46,1,1,2,5,0
#0,LUCKNOW,JHS BEHSA I WARD 2 LUCKNOW,80.8917353,26.7726809,0,11,9,20,1,2,3,3,0
#0,LUCKNOW,JHS UJARIYAWN WARD LUCKNOW,80.946166,26.8466937,0,74,70,144,2,2,4,3,0
#0,LUCKNOW,JHS UDAY GANJ WARD 50 LUCKNOW,80.95118,26.87299,0,15,21,36,1,2,3,5,0
#0,LUCKNOW,JHS CHINHAT WARD LUCKNOW,81.0349854,26.8743898,0,36,34,70,0,3,3,5,0
#0,LUCKNOW,JHS MATIYARI LKO WARD LUCKNOW,80.855233,26.8995862,0,23,34,57,0,2,2,3,0
#0,LUCKNOW,KANYA JHS ISMAILGANJ WARD 73 LUCKNOW,80.3575128,25.0261374,0,20,24,44,2,0,2,3,0
#0,LUCKNOW,JHS JIYAMAU WARD 11 LUCKNOW,80.95118,26.87299,0,8,27,35,2,1,3,4,0
#0,LUCKNOW,J.H.S. KANAUSI WARD 64 LUCKNOW,80.8816245,26.8105338,0,16,19,35,2,0,2,4,0
#0,LUCKNOW,J.H.S. PANDIT KHERA WARD 15 LUCKNOW,80.867468,26.797089,0,30,23,53,0,1,1,7,0
#0,LUCKNOW,J.H.S. LAJPAT NAGAR (GIRLS) CHOWK LUCKNOW,80.9086757,26.8712173,0,28,28,56,2,1,3,3,0
#0,LUCKNOW,JHS JAWAHAR NAGAR WARD 70 LUCKNOW,80.916626,26.8618779,0,16,10,26,0,1,1,4,0
#0,LUCKNOW,UPS GAHRU WARD 23 LUCKNOW,80.8426226,26.7381133,0,12,27,39,0,3,3,3,0
#0,LUCKNOW,JHS MADHOPUR LKO WARD LUCKNOW,80.95118,26.87299,0,15,7,22,1,2,3,0,0
#0,LUCKNOW,JHS KANYA VID MUSAHABGANJ WARD LUCKNOW,80.95118,26.87299,0,12,11,23,1,1,2,0,0
#0,LUCKNOW,JHS KRM PULGAMA WARD 105 LUCKNOW,80.855233,26.8995862,0,84,0,84,2,2,4,0,0
#0,LUCKNOW,JHS NAUBASTA WARD 102 LUCKNOW,80.855233,26.8995862,0,57,65,122,0,4,4,0,0
#0,LUCKNOW,JHS 35 PAC VAHINI WARD 34 LUCKNOW,80.95118,26.87299,0,0,121,121,0,3,3,0,0
#0,LUCKNOW,JHS GAJIPUR BASTOLI WARD 44 LUCKNOW,80.9834641,26.880543,0,14,9,23,0,3,3,3,0
#0,LUCKNOW,JHS KANYA CHINHAT WARD 20 LUCKNOW,80.3575128,25.0261374,0,9,20,29,0,2,2,6,0
#0,LUCKNOW,JHS KANYA VID NIRALA NAGAR WARD 93 LUCKNOW,80.95118,26.87299,0,6,4,10,1,0,1,4,0
#0,LUCKNOW,KANYA KRM VID MUKARIM NAGAR WARD 45 LUCKNOW,80.3575128,25.0261374,0,63,66,129,0,3,3,0,0
#0,LUCKNOW,JHS BHAMROLI SHAHPUR WARD 16 LUCKNOW,80.8440065,26.865206,0,26,18,44,0,2,2,0,0
#0,LUCKNOW,JHS LAHORGANJ WARD LUCKNOW,80.855233,26.8995862,0,22,34,56,0,1,1,1,0
#0,LUCKNOW,JHS SRI SATYA SAI BABA WARD LUCKNOW,80.946166,26.8466937,0,31,48,79,2,1,3,4,0
#0,LUCKNOW,JHS CHAANDAN LKO WARD LUCKNOW,80.95118,26.87299,0,15,83,98,1,2,3,3,0
#0,LUCKNOW,JHS CHAWNI MADIYANW WARD 66 LUCKNOW,80.9525655,26.9313253,0,6,17,23,1,1,2,3,0
#0,LUCKNOW,JHS GULAM HUSSAIN PURWA WARD 18 LUCKNOW,81.0039513,26.8630322,0,36,29,65,0,3,3,0,0
#0,LUCKNOW,JHS RAM ASREY PURWA WARD 18 LUCKNOW,80.906397,26.866659,0,37,32,69,0,5,5,3,0
#0,LUCKNOW,JHS HAIBATMAU LKO WARD LUCKNOW,80.855233,26.8995862,0,52,62,114,1,2,3,0,0
#0,LUCKNOW,JHS LILMATHA WARD 1 LUCKNOW,80.9677658,26.7877845,0,0,137,137,0,4,4,0,0
#0,LUCKNOW,JHS UTRATIA LKO WARD LUCKNOW,80.855233,26.8995862,0,22,20,42,0,2,2,0,0
#0,LUCKNOW,JHS SHAKURPUR WARD 1 LUCKNOW,80.855233,26.8995862,0,56,57,113,2,1,3,0,0
#0,LUCKNOW,KANYA KRM TELIBAGH WARD 2 LUCKNOW,80.3575128,25.0261374,0,10,9,19,1,0,1,4,0
#0,LUCKNOW,JHS GODOLI GODOLI LUCKNOW,80.855233,26.8995862,0,20,81,101,0,1,1,3,0
#0,LUCKNOW,JHS TIRWA TERWA LUCKNOW,79.7863657,26.9554885,0,28,10,38,1,2,3,8,0
#0,LUCKNOW,JHS NANMAU NANMAU LUCKNOW,80.7089671,26.7345025,0,57,43,100,0,2,2,0,0
#0,LUCKNOW,JHS NARAYANPUR NARAINPUR LUCKNOW,80.9449644,26.766611,0,39,28,67,2,2,4,3,0
#0,LUCKNOW,JHS MAVAI PADIYANA MAVAIPADIYANA LUCKNOW,80.8626864,26.7459826,0,115,131,246,0,3,3,0,0
#0,LUCKNOW,JHS SAHIJANPUR SAHJANPUR LUCKNOW,77.552933,29.9695332,0,68,67,135,1,3,4,0,0
#0,LUCKNOW,JHS BANI BANI LUCKNOW,80.7976338,26.6556023,0,18,17,35,0,1,1,5,0
#0,LUCKNOW,JHS BANTHARA BANTHARA SIKANDARPUR LUCKNOW,80.835114,26.689989,0,16,18,34,0,2,2,5,0
#0,LUCKNOW,JHS BENTI BENTI LUCKNOW,80.7796313,26.682181,0,25,22,47,0,2,2,3,0
#0,LUCKNOW,JHS KANYA VID BANTHARA BANTHARA SIKANDARPUR LUCKNOW,80.3575128,25.0261374,0,11,6,17,0,2,2,4,0
#0,LUCKNOW,JHS KHANDEDAV KHANDEDEV LUCKNOW,80.8216833,26.674218,0,6,12,18,0,1,1,4,0
#0,LUCKNOW,JHS PAHARPUR PAHARPUR LUCKNOW,80.9456553,27.0373786,0,57,55,112,0,4,4,5,0
#0,LUCKNOW,JHS SARAY SAHJADI SARAY SAHJADI LUCKNOW,80.8066988,26.6711992,0,26,27,53,0,5,5,6,0
#0,LUCKNOW,JHS AURANWA AORAVA LUCKNOW,80.855233,26.8995862,0,14,16,30,0,4,4,4,0
#0,LUCKNOW,JHS BHATGAON BHATGAON LUCKNOW,80.7824012,26.7028061,0,17,16,33,1,2,3,5,0
#0,LUCKNOW,JHS GARHI CHUNAUTI GARHI CHUNAUTI LUCKNOW,80.7954174,26.7130258,0,25,37,62,2,2,4,6,0
#0,LUCKNOW,KANYA JHS RAMCHAURA RAMCHAURA LUCKNOW,80.3575128,25.0261374,0,21,28,49,0,4,4,4,0
#0,LUCKNOW,JHS ASHRAF NAGAR ASHRAF NAGAR LUCKNOW,80.8718122,26.8478952,0,32,30,62,0,4,4,3,0
#0,LUCKNOW,JHS BIJNAUR BIJNOR LUCKNOW,80.8928228,26.7334598,0,164,80,244,2,9,11,10,3
#0,LUCKNOW,JHS CHANDRAWAL CHANDRAWAL LUCKNOW,80.8834367,26.7137335,0,116,102,218,2,8,10,5,0
#0,LUCKNOW,JHS NATKUR NATKUR LUCKNOW,80.95118,26.87299,0,0,46,46,0,7,7,4,0
#0,LUCKNOW,JHS AHMADPUR KAMALPUR AHMADPUR URF KAMALPUR LUCKNOW,81.0081705,26.6409927,0,33,46,79,3,5,8,5,0
#0,LUCKNOW,JHS SARAIYA SARAIYA LUCKNOW,80.9110954,26.9636695,0,52,47,99,1,7,8,7,0
#0,LUCKNOW,KRM KANYA BIJNAUR BIJNOR LUCKNOW,80.3575128,25.0261374,0,35,40,75,0,4,4,4,0
#0,LUCKNOW,JHS MUZAFFAR NAGAR GHUSVAL MUZAFFAR NAGAR HUSVAL LUCKNOW,80.9907319,26.7797465,0,18,18,36,0,4,4,5,0
#0,LUCKNOW,JHS SAWAI SIWAI LUCKNOW,80.946166,26.8466937,0,61,80,141,2,5,7,7,0
#0,LUCKNOW,JHS BIRURA BIRURA LUCKNOW,80.855233,26.8995862,0,55,83,138,1,10,11,8,3
#0,LUCKNOW,JHS KALLI PASHCHIM KALLI PASHCHIM LUCKNOW,80.9577323,26.7304573,0,50,57,107,0,7,7,5,0
#0,LUCKNOW,JHS PARWAR PASCHIM PARVAR PASHCHIM LUCKNOW,80.9345978,26.6863459,0,25,22,47,0,3,3,4,0
#0,LUCKNOW,JHS PARWAR POORAB PARVAR POORAB LUCKNOW,80.9511835,26.6815633,0,117,0,117,0,8,8,6,0
#0,LUCKNOW,JHS TIKRA TIKRA LUCKNOW,80.855233,26.8995862,0,64,58,122,2,5,7,8,0
#0,LUCKNOW,JHS BIBIPUR BIBIPUR LUCKNOW,81.0134759,26.9009067,0,47,59,106,3,7,10,4,0
#0,LUCKNOW,JHS KHASARWARA KHASARWARA LUCKNOW,80.855233,26.8995862,0,43,47,90,2,3,5,4,0
#0,LUCKNOW,JHS KURAUNI KURAUNI LUCKNOW,80.9453043,26.9038998,0,6,17,23,1,3,4,4,0
#0,LUCKNOW,JHS MAKDOOMPUR KAITHI MAKHDOOMPU KAITHI LUCKNOW,80.88366,26.694483,0,0,106,106,0,7,7,4,2
#0,LUCKNOW,JHS NEEVA NEEVA LUCKNOW,80.95118,26.87299,0,66,40,106,0,7,7,5,0
#0,LUCKNOW,JHS KISHUNPUR KAUDIYA KISHUNPUR KODIA LUCKNOW,83.0522468,26.2338706,0,56,98,154,3,6,9,5,0
#0,LUCKNOW,JHS MIRANPUR PINVAT MIRANPUR PINVAT LUCKNOW,80.8464896,26.7218659,0,86,90,176,2,5,7,3,0
#0,LUCKNOW,JHS BHATGAWAN  PANDEY BHATGAWAN  PANDAY LUCKNOW,80.95118,26.87299,0,149,163,312,3,12,15,8,3
#0,LUCKNOW,JHS DARAB NAGAR BARKOTA DARAB NAGAR LUCKNOW,80.7242136,26.7077641,0,109,104,213,1,7,8,4,0
#0,LUCKNOW,JHS HARAUNI HARONI LUCKNOW,80.7501522,26.7039803,0,55,43,98,1,7,8,3,0
#0,LUCKNOW,JHS RAHIM NAGAR PADIYANA RAHIM NAGER PADIYANA LUCKNOW,80.95118,26.87299,0,36,43,79,1,4,5,4,0
#0,LUCKNOW,JHS KHATOLA KHATOLA LUCKNOW,80.8820535,26.6625215,0,30,25,55,2,2,4,3,0
#0,LUCKNOW,JHS MATI MATI LUCKNOW,80.9239032,26.7119537,0,68,49,117,1,3,4,3,0
#0,LUCKNOW,JHS MEMORA MEMORA LUCKNOW,80.95118,26.87299,0,59,61,120,1,8,9,5,0
#0,LUCKNOW,JHS KALIYA KHEDA KALIYA KHERA LUCKNOW,80.8419307,26.7957396,0,19,23,42,2,2,4,5,0
#0,LUCKNOW,JHS SADRAUNA SADRAUNA LUCKNOW,80.870376,26.846496,0,30,33,63,0,5,5,4,0
#0,LUCKNOW,UPS THAR THAR LUCKNOW,80.946166,26.8466937,0,26,15,41,1,2,3,4,0
#0,LUCKNOW,JHS CHAKAULI CHAKOLI LUCKNOW,80.8151581,26.7828662,0,56,59,115,2,2,4,4,0
#0,LUCKNOW,JHS KHURRAMPUR KHURRAMPUR LUCKNOW,80.9453043,26.9038998,0,73,54,127,3,3,6,4,0
#0,LUCKNOW,JHS LONHA LONHA LUCKNOW,80.9453043,26.9038998,0,59,53,112,1,6,7,4,0
#0,LUCKNOW,JHS PALEHNDA PALEHNDA LUCKNOW,80.855233,26.8995862,0,36,62,98,1,7,8,5,0
#0,LUCKNOW,JHS PIPERSAND PIPERSAND LUCKNOW,80.795907,26.778645,0,63,73,136,2,6,8,4,0
#0,LUCKNOW,JHS BAGIYAMAU BAGIYAMAU LUCKNOW,78.5684594,25.4484257,0,72,56,128,2,5,7,5,2
#0,LUCKNOW,JHS HASANPUR KHEWALI HASANPUR KHEVALI LUCKNOW,81.0056727,26.7865329,0,37,57,94,1,4,5,5,0
#0,LUCKNOW,JHS KANYA KRM ARJUNGANJ ARJUN GANJ LUCKNOW,80.95118,26.87299,0,79,68,147,3,5,8,6,2
#0,LUCKNOW,KANYA JHS BARAUNA BARAUNA LUCKNOW,80.3575128,25.0261374,0,28,36,64,2,2,4,6,0
#0,,,,,,,,,,,,,
#0,,,,,,,,,,,,,
#0,,,,,,,,,,,,,
#0,,,,,,,,,,,,,
#0,,,,,,,,,,,,,
#0,,,,,,,,,,,,,
#0,,,,,,,,,,,,,
#0,,,,,,,,,,,,,
#0,,,,,,,,,,,,,
#0,,,,,,,,,,,,,
#0,,,,,,,,,,,,,
#0,,,,,,,,,,,,,
#0,,,,,,,,,,,,,
#0,,,,,,,,,,,,,
#0,,,,,,,,,,,,,
#0,,,,,,,,,,,,,
#0,,,,,,,,,,,,,
#0,,,,,,,,,,,,,
#0,,,,,,,,,,,,,
#0,,,,,,,,,,,,,
#0,,,,,,,,,,,,,
#0,,,,,,,,,,,,,
#0,,,,,,,,,,,,,
#0,,,,,,,,,,,,,
#0,,,,,,,,,,,,,
#0,,,,,,,,,,,,,
#0,,,,,,,,,,,,,
#0,,,,,,,,,,,,,
#0,,,,,,,,,,,,,
#0,,,,,,,,,,,,,
#0,,,,,,,,,,,,,
#0,,,,,,,,,,,,,
#0,,,,,,,,,,,,,
#0,,,,,,,,,,,,,
#0,,,,,,,,,,,,,
#0,,,,,,,,,,,,,
#0,,,,,,,,,,,,,
#0,,,,,,,,,,,,,
#0,,,,,,,,,,,,,
#0,,,,,,,,,,,,,
#0,,,,,,,,,,,,,
